stop_id,stop_name,stop_lat,stop_lon
"de:05766:14008:0:1","B.S-Schötmar, Lindemannsheide","52.0577050546421","8.76299373258302"
"de:05766:14008:0:2","B.S-Schötmar, Lindemannsheide","52.0577050546421","8.76300271573586"
"de:05766:14009:0:1","B.S-Wüsten, Altes Dorf","52.104215877111","8.7979741297515"
"de:05766:14009:0:2","B.S-Wüsten, Altes Dorf","52.1042048417171","8.79796514659866"
"de:05766:14010:0:1","B.S-Wüsten, Kätchenort","52.1015728222898","8.80290588066201"
"de:05766:14010:0:2","B.S-Wüsten, Kätchenort","52.1015728222898","8.80292384696769"
"de:05766:14011:0:1","B.S-Wüsten, Langenberg","52.1000884493343","8.79097625368724"
"de:05766:14011:0:2","B.S-Wüsten, Langenberg","52.100105003952","8.79095828738155"
"de:05766:14012:0:1","B.S-Retzen, Retzerheide","52.0537556140757","8.80048941254739"
"de:05766:14012:0:2","B.S-Retzen, Retzerheide","52.0537832337534","8.80048941254739"
"de:05766:14013:0:1","B.S-Hölsen","52.0358268416018","8.78868554971242"
"de:05766:14013:0:2","B.S-Hölsen","52.0358268416018","8.78868554971242"
"de:05766:14014:0:1","B.S-Ahmsen, Zur Werre","52.0882282462383","8.70108184319288"
"de:05766:14014:0:2","B.S-Ahmsen, Zur Werre","52.0882227265639","8.70111777580425"
"de:05766:14015:0:1","B.S-Ahmsen, Wämskenweg","52.0851040013373","8.68146263738498"
"de:05766:14015:0:2","B.S-Ahmsen, Wämskenweg","52.085115041457","8.68146263738498"
"de:05766:14016:0:1","B.S-Lockhausen, Zeisigweg","52.0668178157529","8.69207174089191"
"de:05766:14016:0:2","B.S-Lockhausen, Zeisigweg","52.0668233380747","8.69204479143338"
"de:05766:14017:0:1","B.S-Wüsten, Wiensieker Weg","52.0918710824331","8.79128168088388"
"de:05766:14017:0:2","B.S-Wüsten, Wiensieker Weg","52.0918710824331","8.79129066403672"
"de:05766:18014:0:1","Le-Niederluhe","52.0636920720488","8.89595337780406"
"de:05766:18014:0:2","Le-Niederluhe","52.0636920720488","8.89597134410974"
"de:05766:18027:0:1","Dt-Klüt, Dianastraße","51.9601042376338","8.89286317322626"
"de:05766:18028:0:1","Dt-Klüt, Am Sonnenhang","51.9605304697898","8.90195412390281"
"de:05766:2000:71:703","Detmold, Bahnhof","51.9403824185421","8.87238158474548"
"de:05766:2000:71:72","Detmold, Bahnhof","51.9401830521218","8.87275887716486"
"de:05766:2000:71:79","Detmold, Bahnhof Steig 9","51.9405153289967","8.87160903360103"
"de:05766:2000:71:799","Detmold, Bahnhof","51.940221817884","8.87142038739134"
"de:05766:20004:0:1","Dt-Remmighausen, Ellernstraße Ri Dt Bf","51.9184966661791","8.9131471323445"
"de:05766:2003:0:1","Bad Salzuflen, Waldstraße Ri Ak","52.0877425122746","8.76755717422698"
"de:05766:2004:0:1","Bad Salzuflen, Asenburg Ri Ak","52.0864619155712","8.76877888301355"
"de:05766:2004:0:2","Bad Salzuflen, Asenburg Ri BS ZOB","52.0864950349144","8.76876091670787"
"de:05766:2007:0:1","Bad Salzuflen, Am Hellweg Ri BS ZOB","52.0885042290894","8.74018550751605"
"de:05766:2008:0:1","B.S-Papenhausen, Schirneker Ri Tip","52.0513857821426","8.84429126580715"
"de:05766:2010:0:1","Lemgo, Spiegelberg Ri AmK","52.0363739274697","8.90804470152999"
"de:05766:2020:0:1","Dt-Meiersfeld, Eichholzer Weg Ri Bf","51.9311386381185","8.90985929840416"
"de:05766:2020:0:2","Dt-Meiersfeld, Eichholzer Weg Ri Mei","51.931105403597","8.9099311636269"
"de:05766:2022:0:1","Lemgo, Tulpenweg Ri Gos","52.0323507558015","8.88565868464662"
"de:05766:2024:0:1","Lemgo, Pöstenweg","52.0303500878682","8.91798905172658"
"de:05766:2024:0:2","Lemgo, Pöstenweg","52.0303390342055","8.91798905172658"
"de:05766:2025:0:1","Lemgo, Hasenbrede","52.0358378939078","8.94183932252327"
"de:05766:2027:0:1","Lemgo, Breite Straße Ri Bf","52.0235128757134","8.89897171715912"
"de:05766:2028:0:1","Le-Brake, Wasserfurche Ri FH","52.0155854863652","8.91147626591581"
"de:05766:2030:0:1","B.S-Wülfer-Bexten, Dornenk.","52.049347294678","8.6941648155042"
"de:05766:2030:0:2","B.S-Wülfer-Bexten, Dornenk.","52.049336245712","8.69426363018547"
"de:05766:2031:0:1","B.S-Kusenbaum, Kampstraße Ri Ueb","52.0457175624062","8.66198716202256"
"de:05766:2032:0:1","B.S-Kusenbaum, Sölterstraße Ri Ber","52.0506068588866","8.67120387683891"
"de:05766:2032:0:2","B.S-Kusenbaum, Sölterstraße Ri Kli","52.0506013345597","8.67117692738038"
"de:05766:2033:0:1","B.S-Aspe, Lockhauser Straße Ri Höh","52.0662711025168","8.73393323313771"
"de:05766:2033:0:2","B.S-Aspe, Lockhauser Straße Ri ZOB","52.0662766249062","8.73386136791497"
"de:05766:2034:0:1","Lemgo, Steinstoß","52.017935103192","8.89837882907152"
"de:05766:2040:0:1","B.S-Knetterheide, Bexterholz Ri Fri","52.0611405077737","8.70789107304746"
"de:05766:2040:0:2","B.S-Knetterheide, Bexterholz Ri Kri","52.0611184156716","8.70798988772873"
"de:05766:2041:0:1","B.S-Biemsen, Fluchtstraße Ri Rek","52.0781316202794","8.7054027397101"
"de:05766:2042:0:1","Lemgo, Eben-Ezer Ri Lüe","52.0516012266033","8.90734401560828"
"de:05766:2042:0:2","Lemgo, Eben-Ezer","52.0525513795239","8.90730808299691"
"de:05766:2043:0:1","Lemgo, Haferstraße","52.0292004923176","8.90105580861857"
"de:05766:2044:0:1","Lemgo, Treffpunkt Ri Lüp","52.0283824928719","8.89474065217033"
"de:05766:2044:0:2","Lemgo, Treffpunkt","52.0283548574942","8.89480353424023"
"de:05766:2046:0:1","Lemgo, Daimlerstraße Ri Lieb","52.0153919830092","8.90265480982452"
"de:05766:2047:0:1","Le-Brake, Schiefe Breite alle Ri","52.0132136303465","8.91362323944515"
"de:05766:2049:0:1","Le-Brake, Hasenkamp","52.0124838031979","8.92168112754482"
"de:05766:2049:0:2","Le-Brake, Hasenkamp","52.0124782741589","8.92173502646188"
"de:05766:2050:0:1","Le-Entrup","52.0521204987265","8.88277509258419"
"de:05766:2050:0:2","Le-Entrup","52.0520431607077","8.88273017681998"
"de:05766:2051:0:1","Lemgo, Am Kolk Ri Les","52.0391258336276","8.91573428036313"
"de:05766:2051:0:2","Lemgo, Am Kolk Ri Spi","52.0391258336276","8.91573428036313"
"de:05766:2052:0:1","Lemgo, Hamelner Straße","52.0271057205904","8.91792616965668"
"de:05766:2053:0:1","Lemgo, Heutor","52.0254033008439","8.89011432845647"
"de:05766:2054:0:1","Lemgo, Grevenmarsch","52.0249003007895","8.88150846803341"
"de:05766:2055:0:1","Lemgo, An der Bega","52.0237063439437","8.87789724059074"
"de:05766:2056:0:1","Lemgo, Kleiner Schratweg","52.0206107518329","8.87987353421608"
"de:05766:2057:0:1","Lemgo, Laubker Weg","52.0111125806039","8.88093354625149"
"de:05766:2057:0:2","Lemgo, Laubker Weg","52.0111125806039","8.88094252940433"
"de:05766:2058:0:1","Lemgo, Otto-Hahn-Straße","52.0085967202029","8.88959330559161"
"de:05766:2060:0:1","Bad Salzuflen, Volkhausenstr Ri Her","52.0889899547616","8.74076941245081"
"de:05766:2060:0:2","Bad Salzuflen, Volkhausenstr Ri Goe","52.0889899547616","8.74075144614512"
"de:05766:2061:0:1","Bad Salzuflen, Schnatweg Ri Bhf","52.0910652685296","8.72541720424307"
"de:05766:2062:0:1","B.S-Knetterhei., Weiße Breden Ri Gru","52.0615492096911","8.73742767959342"
"de:05766:2062:0:2","B.S-Knetterhei., Weiße Breden Ri Fin","52.0615492096911","8.73749056166332"
"de:05766:2065:0:1","Bad Salzuflen, Sauerbruchstr Ri Her","52.0893542455459","8.73024115731946"
"de:05766:2080:0:1","B.S-Holzhausen, Rote Erde Ri Höh","52.0415957738024","8.75460346782818"
"de:05766:2080:0:2","B.S-Holzhausen, Rote Erde Ri ZOB","52.0415957738024","8.75455855206396"
"de:05766:2083:0:2","Detmold, Bülowstraße Ri St","51.9338250138689","8.86803373876974"
"de:05766:2084:0:1","Detmold, Ecclesiastraße","51.9438102747901","8.85459494211744"
"de:05766:2084:0:2","Detmold, Ecclesiastraße Ri Kl","51.9438047372691","8.85459494211744"
"de:05766:2085:0:1","Detmold, Am Oberen Feld","51.9556202512198","8.85178321527775"
"de:05766:2086:0:1","Detmold, Einkaufszentrum Jerxen Orbke Ri Kre","51.9535164981035","8.85446917797764"
"de:05766:2102:0:1","B.S-Schötmar, Am alten Teich Ri Loc","52.0752937756922","8.76045150032861"
"de:05766:2105:0:1","Detmold, Sedanstraße Ri Bf","51.9389425300431","8.87408838378555"
"de:05766:2106:0:1","Detmold, Klinikum Ri Bf","51.9426584557085","8.87651383505301"
"de:05766:2106:0:2","Detmold, Klinikum Ri JO","51.9426695310328","8.87654976766438"
"de:05766:2107:0:1","Detmold, Südholzstraße Ri Bf","51.945980930357","8.87345057993373"
"de:05766:2107:0:2","Detmold, Südholzstraße Ri JO","51.94606398907","8.87342363047521"
"de:05766:2108:0:1","Detmold, Pinneichen Ri Bf","51.9497516409034","8.86923748125063"
"de:05766:2108:0:2","Detmold, Pinneichen Ri JO","51.9485889005337","8.87052207210709"
"de:05766:2110:0:1","Detmold, Kreuzstraße Ri Am B","51.951551060617","8.85359781215193"
"de:05766:2110:0:2","Detmold, Kreuzstraße Ri Re","51.9515676703089","8.85369662683319"
"de:05766:2112:0:1","Detmold, Klusstraße Ri Ba","51.9400556786672","8.88747328152079"
"de:05766:2112:0:2","Detmold, Klusstraße Ri Brok","51.940061216651","8.88742836575658"
"de:05766:2113:0:1","Detmold-Barkhausen Ri Mei","51.973614378436","8.93264955716545"
"de:05766:2113:0:2","Detmold-Barkhausen Ri Bark","51.9735590399973","8.93258667509555"
"de:05766:2116:0:1","Detmold, Steinstoß Ri Humb","51.932484615556","8.86553642227954"
"de:05766:2122:0:1","Detmold, Westerfeldstr Ri Nie","51.9559247336253","8.84573755341479"
"de:05766:2126:0:1","B.S-Holzhausen, Benzstraße Ri Höh","52.0522254572523","8.75353447263993"
"de:05766:2126:0:2","B.S-Holzhausen, Benzstraße Ri ZOB","52.0522586019987","8.75352548948708"
"de:05766:2127:0:1","B.S-Schötmar, Thüringer Straße Ri Höh","52.0570919476022","8.75878961705276"
"de:05766:2127:0:2","B.S-Schötmar, Thüringer Straße Ri ZOB","52.0570753770249","8.7587357181357"
"de:05766:2128:0:1","Le-Brake, Wiembecker Straße Ri Maß","52.0080658832347","8.92805018291012"
"de:05766:2128:0:2","Le-Brake, Wiembecker Straße","52.0080327057152","8.92811306498001"
"de:05766:2154:0:1","Le-Entrup, Am Kurzen Land Ri Sche","52.0497008601455","8.88335899751895"
"de:05766:2154:0:2","Le-Entrup, Am Kurzen Land Ri Schl","52.0496290423863","8.88343984589453"
"de:05766:2166:0:1","B.S-Wüsten, Im Frettholz Ri ZOB","52.1040834522044","8.77065636195763"
"de:05766:2166:0:2","B.S-Wüsten, Im Frettholz Ri Wü","52.1040834522044","8.7706294124991"
"de:05766:2175:0:1","Dt-Jerxen-Orbke, Heidlandstr. Ri Bf","51.9531621720771","8.86288639219102"
"de:05766:2175:0:2","Dt-Jerxen-Orbke, Heidlandstr. Ri JO","51.9531677084428","8.86279656066259"
"de:05766:2176:0:1","Dt-Jerxen-Orbke, Vereinshaus Ri Bf","51.9550057440674","8.85857447882664"
"de:05766:2176:0:2","Dt-Jerxen-Orbke, Vereinshaus Ri JO","51.9550500331528","8.85857447882664"
"de:05766:2177:0:1","Dt-Jerxen-Orbke, Abzw. Niewald","51.9568326325228","8.8598770359888"
"de:05766:2178:0:1","Dt-Niewald, Abzw.Bremke","51.9665747804573","8.85101964728615"
"de:05766:2179:0:1","Dt-Niewald, Niederfriedrich","51.9717272991042","8.84868402754711"
"de:05766:2179:0:2","Dt-Niewald, Niederfriedrich","51.9717217650303","8.8487019938528"
"de:05766:2181:0:1","Dt-Jerxen-Orbke, Orbker Krug alle Ri","51.958958372655","8.84914216834208"
"de:05766:2209:0:1","B.S-Hölserheide, Mönch Ri La","52.0288799267502","8.77659422598648"
"de:05766:2209:0:2","B.S-Hölserheide, Mönch Ri BS","52.0288467646638","8.77668405751491"
"de:05766:2210:71:71","B.S-Sylbach, Bahnhof","52.0260831710476","8.7652125713351"
"de:05766:2210:71:72","B.S-Sylbach, Bahnhof","52.0260555342489","8.76515867241805"
"de:05766:2210:71:74","B.S-Sylbach, Bahnhof","52.0264756117449","8.76505087458394"
"de:05766:2211:0:1","B.S-Sylbach, Weege Ri Hau","52.0250771805744","8.76019098889618"
"de:05766:2211:0:2","B.S-Sylbach, Weege Ri Bhf","52.0250274332056","8.76018200574334"
"de:05766:2213:0:1","B.S-Holzhausen, Volksbank Ri Pla","52.0368049601048","8.75750502619629"
"de:05766:2213:0:2","B.S-Holzhausen, Volksbank Ri Haup","52.0367883820034","8.75747807673776"
"de:05766:2214:0:1","B.S-Holzhausen, Plaß Ri Rot","52.0427008482554","8.75823266157652"
"de:05766:2214:0:2","B.S-Holzhausen, Plaß Ri Volk","52.0427174241642","8.75824164472937"
"de:05766:2215:0:1","B.S-Holzhausen, Abzw.Heerserhd Ri Lag","52.0502091056038","8.75919385893067"
"de:05766:2216:0:1","B.S-Schötmar, Kattenbrink","52.0557276161558","8.75988556169954"
"de:05766:2216:0:2","B.S-Schötmar, Kattenbrink","52.055722092462","8.75988556169954"
"de:05766:2217:0:1","B.S-Schötmar, Königsbrücke Ri Mar","52.0621235952539","8.76079286013662"
"de:05766:2217:0:2","B.S-Schötmar, Königsbrücke Ri Lag","52.062107026543","8.76072997806672"
"de:05766:2218:1:1","B.S-Schötmar, Markt Ri ZOB","52.0704347902509","8.75891538119255"
"de:05766:2218:2:2","B.S-Schötmar, Markt Ri BS","52.0708544507655","8.75865486976012"
"de:05766:2218:2:3","B.S-Schötmar, Markt Ri Le","52.0709207125915","8.75863690345443"
"de:05766:2219:0:1","B.S-Schötmar, Schloßstraße Ri Bad Salzuflen","52.0743827562021","8.7575499419605"
"de:05766:2219:0:2","B.S-Schötmar, Schloßstraße Ri Bi/Le","52.0743827562021","8.75755892511334"
"de:05766:2220:2:2","Bad Salzuflen, Rathaus","52.0781040156562","8.75394769767068"
"de:05766:2220:3:1","Bad Salzuflen, Rathaus","52.0781702667232","8.75410939442184"
"de:05766:2221:2:1","B.S-Schötmar, Markt/Heldmanstr Ri Schlo","52.0710698013403","8.75959810080858"
"de:05766:2221:2:2","B.S-Schötmar, Markt/Heldmanstr Ri Kli","52.0711029321058","8.75975979755974"
"de:05766:2222:2:3","Bad Salzuflen, ZOB Steig 3","52.0820678647659","8.74894408153744"
"de:05766:2222:4:AST","Bad Salzuflen, ZOB AST","52.0820954669378","8.74954595277788"
"de:05766:2223:71:71","Bad Salzuflen, Bahnhof","52.0821285895215","8.74052686732406"
"de:05766:2223:72:72","Bad Salzuflen, Bahnhof","52.081460612666","8.74178450872201"
"de:05766:2225:0:1","B.S-Ahmsen, Rektorskamp Ri Dor","52.0857498437475","8.70933736065509"
"de:05766:2225:0:2","B.S-Ahmsen, Rektorskamp Ri Mee","52.0857167238513","8.7093822764193"
"de:05766:2227:0:1","B.S-Aspe, Schwimmhalle","52.0651445208034","8.73218151833343"
"de:05766:2227:0:2","B.S-Aspe, Schwimmhalle","52.0651334757439","8.73217253518059"
"de:05766:2268:0:1","B.S-Holzhausen, Jüchenweg Ri Höh","52.0352908014803","8.75165699369585"
"de:05766:2268:0:2","B.S-Holzhausen, Jüchenweg Ri ZOB","52.0352963276999","8.75162106108449"
"de:05766:2269:0:1","B.S-Holzhausen, Torfkuhle Ri Höh","52.0316101874989","8.75629230056256"
"de:05766:2269:0:2","B.S-Holzhausen, Torfkuhle Ri ZOB","52.0315880807939","8.75625636795119"
"de:05766:2270:0:1","B.S-Holzhausen, Gronhofweg Ri Höh","52.0404740952928","8.75134258334637"
"de:05766:2270:0:2","B.S-Holzhausen, Gronhofweg Ri ZOB","52.0404685697132","8.75135156649921"
"de:05766:2271:0:1","B.S-Knetterheide, Asperheide Ri Leu","52.0571250887384","8.72201258931578"
"de:05766:2271:0:2","B.S-Knetterheide, Asperheide Ri FNie","52.0571416592973","8.72201258931578"
"de:05766:2285:0:1","Le-Lieme, Trifte Ri Dor","52.0377775312955","8.82927143425458"
"de:05766:2286:0:1","Le-Lieme, Weststraße","52.0347105446201","8.82796887709243"
"de:05766:2287:0:1","Le-Lieme, Friedr-Ebert-Str","52.0321075854726","8.83768864846796"
"de:05766:2288:0:1","Le-Lieme, Lehbrinksweg","52.0271112478217","8.8373383055071"
"de:05766:2288:0:2","Le-Lieme, Lehbrinksweg","52.0271112478217","8.83732932235426"
"de:05766:2291:0:1","Le-Lieme, Sepkamp Ri Neu","52.0245907594826","8.837571867481"
"de:05766:2295:0:1","Lemgo, Am Ochsenteich","52.0345613344959","8.86654253539789"
"de:05766:2295:0:2","Lemgo, Am Ochsenteich","52.0345889660379","8.86657846800926"
"de:05766:2296:0:1","Lemgo, Anemonenweg","52.0321904845969","8.8778882574379"
"de:05766:2296:0:2","Lemgo, Anemonenweg","52.0321904845969","8.8778882574379"
"de:05766:2299:0:1","Lemgo, Borchert","52.0341855438286","8.84452482778106"
"de:05766:2299:0:2","Lemgo, Borchert","52.0341855438286","8.8445338109339"
"de:05766:2306:1:1","Le-Lieme, Wittighöferheide Ri Le","52.0378272644809","8.83085246915485"
"de:05766:2306:2:2","Le-Lieme, Wittighöferheide Ri BS","52.0379819895929","8.83078060393212"
"de:05766:2307:1:1","Le-Brake, Lüttfeld","52.020328821193","8.91083846206399"
"de:05766:2318:0:1","B.S-Ahmsen, Friedhof","52.0890893070886","8.69350006219386"
"de:05766:2319:0:1","B.S-Ahmsen, Buschortstraße Ri Mee","52.0868814254353","8.69142495388726"
"de:05766:2320:0:1","B.S-Ahmsen, Siedlung Ri Busc","52.0876762754154","8.68819101886398"
"de:05766:2322:0:1","Dt-Pivitsh VL, Höpperkuhle Ri Ber","51.9440096250901","8.79937550159493"
"de:05766:2323:0:1","Dt-Pivitsh VH, Körnerstr Ri Bf","51.9413183212838","8.80195366646071"
"de:05766:2323:0:2","Dt-Pivitsh VH, Körnerstr Ri Hö","51.9413626238881","8.8019087506965"
"de:05766:2325:0:1","Detmold-Heidenoldendorf, Adolf-Meier-Straße Ri Ber","51.9444415477009","8.8344816629032"
"de:05766:2335:0:1","Le-Lieme","52.0255470141061","8.82966669297965"
"de:05766:2336:0:1","Le-Lieme, In der Ecke","52.0246405073371","8.83194841380163"
"de:05766:2337:0:1","Le-Lieme, Dorfstraße Ri Neu","52.0257736379275","8.83772458107933"
"de:05766:2338:0:1","Lemgo, Liemer Weg","52.0265364121082","8.86673118160758"
"de:05766:2338:0:2","Lemgo, Liemer Weg","52.0265474667108","8.86670423214906"
"de:05766:2339:0:1","Lemgo, Am Bauhof","52.0263208468107","8.87321701795983"
"de:05766:2339:0:2","Lemgo, Am Bauhof","52.0263042648217","8.87322600111267"
"de:05766:2340:0:1","Lemgo, Am Alten Fluß","52.0273876085154","8.87990048367461"
"de:05766:2340:0:2","Lemgo, Am Alten Fluß","52.0274041901027","8.87990048367461"
"de:05766:2341:0:1","Le-Lieme, Siebenkamp Ri Dor","52.0255083221194","8.83462539334868"
"de:05766:2406:0:1","Dt-Altenkamp, Ost Ri Mey","51.9557365083823","8.97174423833577"
"de:05766:2491:0:1","B.S-Schötmar, Grüner Sand","52.0721851902602","8.74193722232033"
"de:05766:2492:0:1","B.S-Schötmar, Gerberweg","52.0711968024745","8.73973634987393"
"de:05766:2493:0:1","B.S-Schötmar, Lohheide","52.0697942481766","8.74355418983197"
"de:05766:2493:0:2","B.S-Schötmar, Lohheide","52.0700924326991","8.74369792027745"
"de:05766:2494:0:1","B.S-Schötmar, Mühlenweg","52.068711932068","8.74487471329981"
"de:05766:2494:0:2","B.S-Schötmar, Mühlenweg","52.068711932068","8.74482979753559"
"de:05766:2495:0:1","Lemgo, E.-Kämpfer-Straße","52.0261881907266","8.89398606733156"
"de:05766:2496:0:1","Lemgo, Ostschule","52.0277745106174","8.91312916603881"
"de:05766:2496:0:2","Lemgo, Ostschule","52.0277910920613","8.91312916603881"
"de:05766:2497:0:1","Le-Trophagen, Heidensche Str alle Ri","51.9960208274764","8.8628414764268"
"de:05766:2499:0:1","Lemgo, A-Hermann-Franke-Sch Ri Sta","52.0256409802202","8.9102904897406"
"de:05766:2500:71:704","Lemgo, Bahnhof","52.0225786887675","8.89439030920947"
"de:05766:2500:71:798","Lemgo, Bahnhof","52.0225178830237","8.89403996624862"
"de:05766:2501:0:1","Lemgo, Rampendal Ri Wai","52.0276639675013","8.89531557395225"
"de:05766:2502:0:1","Lemgo, Waisenhausplatz Ri Pap","52.0274981523147","8.90122648852257"
"de:05766:2503:0:1","Lemgo, Papenstraße Ri Stw/Bism","52.0273710269219","8.90514314316188"
"de:05766:2504:0:1","Lemgo, Stadtwerke Ri KWS","52.0304772047922","8.9062480709615"
"de:05766:2504:0:2","Lemgo, Stadtwerke Ri Ost","52.0304772047922","8.9062480709615"
"de:05766:2505:0:1","Lemgo, Kleiststraße Ri Ges","52.0321517983581","8.90697570634174"
"de:05766:2505:0:2","Lemgo, Kleiststraße Ri Sta","52.0321628515726","8.90702960525879"
"de:05766:2506:0:1","Lemgo, Pideritstraße","52.0319031003088","8.90393041752815"
"de:05766:2506:0:2","Lemgo, Pideritstraße","52.0319031003088","8.90393041752815"
"de:05766:2508:0:1","Lemgo, Klinikum Ri Al","52.0379654119279","8.90258294460178"
"de:05766:2508:0:2","Lemgo, Klinikum Ri Le","52.0379654119279","8.90252904568473"
"de:05766:2509:0:1","Lemgo, Quelle Ri Al","52.0450987658474","8.9031578663837"
"de:05766:2509:0:2","Lemgo, Quelle Ri Le","52.0450711408013","8.90313990007802"
"de:05766:2510:0:1","Lemgo, Abzw. Lüerdissen Ri Que","52.0533136969093","8.90817046566978"
"de:05766:2511:0:1","Lemgo, Abzw. Buchenstraße","52.0584286205935","8.90720926831564"
"de:05766:2511:0:2","Lemgo, Abzw. Buchenstraße","52.0584341439526","8.90722723462133"
"de:05766:2512:0:1","Le-Oberluhe","52.06284156682","8.90991319732122"
"de:05766:2512:0:2","Le-Oberluhe","52.062830521191","8.90994014677975"
"de:05766:2575:0:1","Lemgo, Ostertor","52.0280121773919","8.90676909382636"
"de:05766:2604:0:1","Lemgo, M.-Kabaker-Str","52.0174873033856","8.89598931041543"
"de:05766:2632:0:1","Lemgo, Konsul-Wolff-Straße Ri Kli/RWS","52.0334007943091","8.90340041151045"
"de:05766:2632:0:2","Lemgo, Konsul-Wolff-Straße Ri Stw","52.0333897414006","8.90340939466329"
"de:05766:2633:0:1","Lemgo, Bismarckstraße Ri Sta","52.0267851400065","8.91148524906865"
"de:05766:2633:0:2","Lemgo, Bismarckstraße Ri Reg","52.0267353945375","8.91155711429139"
"de:05766:2634:0:1","Lemgo, Regenstor alle Ri","52.0252374772752","8.90745181344239"
"de:05766:2635:0:1","Lemgo, Stiftstraße alle Ri","52.0260997531185","8.89748949694012"
"de:05766:2637:0:1","Lemgo, Mozartstraße Ri Kon","52.0357273707247","8.89743559802306"
"de:05766:2637:0:2","Lemgo, Mozartstraße Ri Gos","52.0357328968904","8.89743559802306"
"de:05766:2694:0:1","B.S-Schötmar, Lagesche Str. 81 Ri Höh","52.0593896748037","8.76032573618881"
"de:05766:2694:0:2","B.S-Schötmar, Lagesche Str. 81 Ri ZOB","52.0594504304095","8.76032573618881"
"de:05766:2695:0:1","Lemgo, Topehlenweg","52.0208595126866","8.88803023699702"
"de:05766:2696:0:1","Lemgo, Trophagener Weg","52.0194222086595","8.88760802881343"
"de:05766:2698:0:1","Dt-Hohenloh, Boelckestraße Ri Bf","51.9414899936319","8.89123722256178"
"de:05766:2698:0:2","Dt-Hohenloh, Boelckestraße Ri Brok","51.9414733802075","8.89125518886746"
"de:05766:2699:0:1","Dt-Hohenloh, Moritz-Rülf-Str Ri Bf","51.9448623913724","8.8953694728693"
"de:05766:2699:0:2","Dt-Hohenloh, Moritz-Rülf-Str Ri Brokh","51.944845779197","8.8953694728693"
"de:05766:2700:0:1","Dt-Jerxen-Orbke, Oetternstr alle Ri","51.9591576556248","8.87608264371657"
"de:05766:2702:0:1","Bad Salzuflen, Drosselweg alle Ri","52.097263037919","8.74880035109196"
"de:05766:2703:2:1","Le-Hörstmar, Uferstraße Ri Le","52.0121575887288","8.84950149445577"
"de:05766:2704:0:1","Bad Salzuflen, Stauteichstraße alle Ri","52.0906237204926","8.76310153041713"
"de:05766:2705:0:1","Lemgo, Lüpke Ri Lag","52.0196378072077","8.86911171711083"
"de:05766:2706:0:1","Lemgo, Lagesche Straße Ri Ste","52.0215505077992","8.88154440064478"
"de:05766:2706:0:2","Lemgo, Lagesche Straße Ri Lüp","52.0215836752961","8.88152643433909"
"de:05766:2707:0:1","Lemgo, Steinweg Ri Bhf","52.027044921001","8.89180316119085"
"de:05766:2708:0:1","Le-Brake, Markt Ri Wil","52.0156684161188","8.92227401563242"
"de:05766:2709:0:1","Lemgo, Junkerhaus Ri Bis","52.0262047727586","8.91664157880021"
"de:05766:2710:0:1","Lemgo, Nachtigall Ri Jun","52.0265585213107","8.92107027315154"
"de:05766:2711:0:1","Lemgo, Bellevue Ri Na","52.0264811390541","8.93938692179728"
"de:05766:2712:0:1","B.S-Kusenbaum, Wellenbusch Ri Ber","52.0442644819244","8.67837243280718"
"de:05766:2712:0:2","B.S-Kusenbaum, Wellenbusch Ri Has","52.0442589568134","8.6783544665015"
"de:05766:2725:0:1","B.S-Knetterheide, Oststraße Ri Bog","52.0543080043869","8.74055381678259"
"de:05766:2725:0:2","B.S-Knetterheide, Oststraße Ri Fin","52.0543135282555","8.7405987325468"
"de:05766:2726:0:1","B.S-Knetterheide, Bogenweg Ri Am","52.0542914327769","8.73707733663256"
"de:05766:2726:0:2","B.S-Knetterheide, Bogenweg Ri Ost","52.0542859089055","8.73706835347972"
"de:05766:2727:0:1","B.S-Knetterhd, Heerser Mühle Ri Dom","52.0615436867172","8.7447040333958"
"de:05766:2727:0:2","B.S-Knetterhd, Heerser Mühle Ri INeu","52.0615271177912","8.74465013447875"
"de:05766:2728:0:1","Dt-Loßbruch Ri Heid","51.9802766269821","8.89480353424023"
"de:05766:2729:0:1","B.S-Lockhausen, Uebbentrup Ri Wal","52.046004857896","8.67991753509608"
"de:05766:2735:0:1","Dt-Hohenloh, Hangar 21 Ri Bf","51.9469942361471","8.89901663292333"
"de:05766:2735:0:2","Dt-Hohenloh, Hangar 21 Ri Brok","51.9469831618906","8.89900764977049"
"de:05766:2740:0:1","B.S-Knetterheide, Schweerweg Ri Wei","52.0615713015801","8.7337625532337"
"de:05766:2740:0:2","B.S-Knetterheide, Schweerweg Ri Pau","52.061560255637","8.73370865431665"
"de:05766:2741:0:1","Lemgo, Johannistor","52.0270338665214","8.8932314824928"
"de:05766:2741:0:2","Lemgo, Johannistor","52.0270338665214","8.89324046564564"
"de:05766:2770:0:1","B.S-Wüsten, Kirchheider Str. Ri Wü","52.0868924651154","8.81168242098908"
"de:05766:2770:0:2","B.S-Wüsten, Kirchheider Str. Ri ZOB","52.0868538262234","8.81170038729476"
"de:05766:2771:0:1","B.S-Wüsten, Glimke Ri Hel","52.1162318004121","8.79377899737408"
"de:05766:2771:0:2","B.S-Wüsten, Glimke Ri Eng","52.1162428328297","8.79378798052692"
"de:05766:2772:0:1","B.S-Wüsten, Hellerhausen Ri Wal","52.1134736103515","8.78339447268822"
"de:05766:2772:0:2","B.S-Wüsten, Hellerhausen Ri Gli","52.1134570606961","8.78339447268822"
"de:05766:2773:0:1","B.S-Wüsten, Becker Ri Sun","52.1164248673255","8.81011036924165"
"de:05766:2773:0:2","B.S-Wüsten, Becker Ri Peh","52.1164303835107","8.81011036924165"
"de:05766:2774:0:1","B.S-Wüsten, Engelke Ri Gli","52.1162648976566","8.80247468932557"
"de:05766:2774:0:2","B.S-Wüsten, Engelke Ri Sun","52.1162593814509","8.80249265563125"
"de:05766:2775:0:1","Bad Salzuflen, Haus Vierenberg Ri LVA","52.0972906306927","8.76647021273305"
"de:05766:2775:0:2","Bad Salzuflen, Haus Vierenberg Ri Was","52.0972851121393","8.76648817903873"
"de:05766:2776:0:1","B.S-Wüsten, Hüttenstraße","52.0966891043567","8.81103563398442"
"de:05766:2776:0:2","B.S-Wüsten, Hüttenstraße","52.0966891043567","8.81090986984463"
"de:05766:2777:0:1","B.S-Wüsten, Kreuzung Ri Sal","52.101456943651","8.79199134995844"
"de:05766:2777:0:2","B.S-Wüsten, Kreuzung Ri Voß","52.1015121239927","8.79193745104138"
"de:05766:2778:0:1","B.S-Wüsten, Niederlag Ri Peh","52.1104283703254","8.81079308885767"
"de:05766:2778:0:2","B.S-Wüsten, Niederlag Ri Kre","52.1104394041792","8.81079308885767"
"de:05766:2779:0:1","B.S-Wüsten, Pehlen Ri Bec","52.1148582430931","8.81516788429195"
"de:05766:2779:0:2","B.S-Wüsten, Pehlen Ri Nie","52.1148692758506","8.81514093483342"
"de:05766:2780:0:1","B.S-Wüsten, Pillenbruch","52.0931239285705","8.8455489072051"
"de:05766:2780:0:2","B.S-Wüsten, Pillenbruch","52.0931184095017","8.84553094089941"
"de:05766:2781:0:1","B.S-Wüsten, Quellental Ri ZOB","52.1062408256611","8.77216553163516"
"de:05766:2781:0:2","B.S-Wüsten, Quellental Ri Waldemeine","52.1063070349605","8.77216553163516"
"de:05766:2782:0:1","B.S-Wüsten, Schule alle Ri","52.0990454960371","8.8008936544253"
"de:05766:2783:0:1","B.S-Wüsten, Pillenbr. Str. 28","52.0988633905797","8.83179570020331"
"de:05766:2783:0:2","B.S-Wüsten, Pillenbr. Str. 28","52.0988689089379","8.83176875074478"
"de:05766:2784:0:1","B.S-Wüsten, Roseggerweg Ri Was","52.1014955698974","8.78194818508058"
"de:05766:2784:0:2","B.S-Wüsten, Roseggerweg Ri Sal","52.1014900518642","8.78202005030332"
"de:05766:2785:0:1","B.S-Wüsten, Windberg","52.0963745414832","8.81930013459947"
"de:05766:2785:0:2","B.S-Wüsten, Windberg","52.0963800601492","8.8192642019881"
"de:05766:2787:0:1","B.S-Wüsten, Wasserwerk Ri Hs V","52.1009989441794","8.77436640408156"
"de:05766:2787:0:2","B.S-Wüsten, Wasserwerk Ri Ros","52.1010320527327","8.77433047147019"
"de:05766:2788:0:1","B.S-Wüsten, Poststraße Ri Wü","52.0992331190641","8.80124399738615"
"de:05766:2788:0:2","B.S-Wüsten, Poststraße Ri Holl","52.0992717472364","8.80118111531626"
"de:05766:2789:0:1","B.S-Knetterheide, I.Neuen Land Ri Hee","52.0618916327427","8.73829006226629"
"de:05766:2789:0:2","B.S-Knetterheide, I.Neuen Land Ri Hei","52.0618916327427","8.7382271801964"
"de:05766:2790:0:1","B.S-Grastrup, Lehmeier Ri Le","52.0520486848563","8.78573009242725"
"de:05766:2790:0:2","B.S-Grastrup, Lehmeier Ri BS","52.0520155399542","8.78573009242725"
"de:05766:2791:0:1","B.S-Retzen, Papenhauser Str Wende","52.0484246966121","8.80080382289687"
"de:05766:2791:0:2","B.S-Retzen, Papenhauser Str AL","52.0486235816381","8.80110925009352"
"de:05766:2791:0:3","B.S-Retzen, Papenhauser Str Pap","52.0489605792446","8.8015494245828"
"de:05766:2792:0:1","B.S-Knetterhd, Hainbuchenweg Ri Brö","52.0580751241883","8.72632450268016"
"de:05766:2792:0:2","B.S-Knetterhd, Hainbuchenweg Ri Boh","52.0580033198892","8.72606399124773"
"de:05766:2793:0:1","B.S-Knetterheide, Bonhoefferst Ri Leu","52.0559982763144","8.7275192620082"
"de:05766:2793:0:2","B.S-Knetterheide, Bonhoefferst Ri Am","52.0560037999741","8.72756417777241"
"de:05766:2794:0:1","B.S-Schötmar, Paulinenstraße Ri Le","52.0726545287536","8.76511375665384"
"de:05766:2795:0:1","B.S-Wülfer-Bexten, Bex.Waldstr Ri ZTel","52.0423859048201","8.71336181312851"
"de:05766:2795:0:2","B.S-Wülfer-Bexten, Bex.Waldstr Ri Grü","52.0423582780971","8.71338876258704"
"de:05766:2797:0:1","B.S-Wülfer-Bexten, A.d.Huneke Ri Bek","52.0488003675846","8.71004702972965"
"de:05766:2797:0:2","B.S-Wülfer-Bexten, A.d.Huneke Ri Kie","52.0487340729366","8.71009194549386"
"de:05766:2798:0:1","B.S-Wülfer-Bexten, Bexterbrede","52.0600469356047","8.7083222643839"
"de:05766:2798:0:2","B.S-Wülfer-Bexten, Bexterbrede","52.0600469356047","8.7083222643839"
"de:05766:2799:0:1","B.S-Lockhausen, Kriegerheide Ri Spe","52.0637362536961","8.70431577821616"
"de:05766:2799:0:2","B.S-Lockhausen, Kriegerheide Ri Bex","52.0637196855835","8.70429781191048"
"de:05766:2800:0:1","B.S-Wülfer-Bexten, A.Schlingg. Ri Boh","52.045850160554","8.72217428606695"
"de:05766:2800:0:2","B.S-Wülfer-Bexten, A.Schlingg. Ri Kie","52.0458667352949","8.72221021867832"
"de:05766:2801:0:1","B.S-Wülfer-Bexten, Tornede","52.0534297005885","8.70757666269797"
"de:05766:2801:0:2","B.S-Wülfer-Bexten, Tornede","52.0534186526321","8.70758564585081"
"de:05766:2802:0:1","B.S-Hollenstein, Mergelweg Ri ZOB","52.0790701673106","8.79806396127993"
"de:05766:2803:0:1","B.S-Hollenstein, Vierenbergstr Ri Wü","52.0835749183718","8.80322029101149"
"de:05766:2803:0:2","B.S-Hollenstein, Vierenbergstr Ri ZOB","52.0835693981218","8.80314842578875"
"de:05766:2804:0:1","B.S-Wüsten, Krutheide Ri Salze","52.1115924268497","8.77155467724187"
"de:05766:2804:0:2","B.S-Wüsten, Krutheide Ri Walde","52.1115979436329","8.77153671093619"
"de:05766:2805:0:1","B.S-Wüsten, Loosestraße Ri Krut","52.1132750140813","8.76092760742926"
"de:05766:2805:0:2","B.S-Wüsten, Loosestraße Ri Stei","52.1132694975056","8.76092760742926"
"de:05766:2806:0:1","Bad Salzuflen, Hotel Schwaghof","52.1084698180187","8.74379673495871"
"de:05766:2806:0:2","Bad Salzuflen, Hotel Schwaghof","52.1084808523572","8.74379673495871"
"de:05766:2807:0:1","B.S-Hollenstein, Heldm'str.244 Ri ZOB","52.0821617120806","8.80159434034701"
"de:05766:2808:0:1","Bad Salzuflen, Steinbeck Ri Loos","52.1087401585253","8.75774757132303"
"de:05766:2809:0:1","B.S-Ehrsen, Auf dem Rhön Ri Le","52.0653543764137","8.76937177110116"
"de:05766:2809:0:2","B.S-Ehrsen, Auf dem Rhön Ri BS","52.0653654214185","8.76933583848979"
"de:05766:2810:0:1","B.S-Ehrsen, Immenstraße Ri Le","52.0618805868788","8.77412385895481"
"de:05766:2810:0:2","B.S-Ehrsen, Immenstraße Ri BS","52.0618584951428","8.77412385895481"
"de:05766:2811:0:1","B.S-Knetterheide, Nordstraße Ri FNi","52.0566003511947","8.72194072409304"
"de:05766:2811:0:2","B.S-Knetterheide, Nordstraße Ri Bex","52.0566169219482","8.72200360616294"
"de:05766:2812:0:1","B.S-Knetterheide, Brökerweg Ri Hei","52.0593896748037","8.73000759534556"
"de:05766:2812:0:2","B.S-Knetterheide, Brökerweg Ri Hai","52.059362058592","8.72998064588703"
"de:05766:2813:0:1","B.S-Knetterheide, Finkenweg Ri Ost","52.0575669682051","8.73919736070338"
"de:05766:2813:0:2","B.S-Knetterheide, Finkenweg Ri Wei","52.0575890620637","8.73931414169033"
"de:05766:2814:0:1","B.S-Knetterheide, F-Niewald-Wg Ri Bex","52.0599364722807","8.71511352793279"
"de:05766:2814:0:2","B.S-Knetterheide, F-Niewald-Wg Ri Asp","52.0599806576431","8.715158443697"
"de:05766:2816:0:1","B.S-Knetterheide, Heidsiek","52.061455319041","8.73468781797647"
"de:05766:2816:0:2","B.S-Knetterheide, Heidsiek","52.0614497960554","8.73462493590658"
"de:05766:2817:0:1","B.S-Knetterheide, A.Schorm. B. Ri Bon","52.0554293357142","8.73230728247323"
"de:05766:2817:0:2","B.S-Knetterheide, A.Schorm. B. Ri Bog","52.05545143063","8.73230728247323"
"de:05766:2818:0:1","B.S-Knetterheide, Leuschnerstr Ri Am","52.0555563813309","8.72487821507252"
"de:05766:2818:0:2","B.S-Knetterheide, Leuschnerstr Ri Bon","52.055534286467","8.724851265614"
"de:05766:2819:0:1","B.S-Aspe, Paul-Schneider-Str Ri Loc","52.0651224306818","8.73149879871741"
"de:05766:2819:0:2","B.S-Aspe, Paul-Schneider-Str Ri Bex","52.0650948180144","8.73151676502309"
"de:05766:2821:0:1","B.S-Knetterheide, Schelpstraße Ri Wei","52.0592018842271","8.73643054962791"
"de:05766:2821:0:2","B.S-Knetterheide, Schelpstraße Ri Fin","52.0592571168316","8.73631376864096"
"de:05766:2822:0:1","Bad Salzuflen, Klinik.a.Burggr Ri ZOB","52.0958723400176","8.76347882283651"
"de:05766:2823:0:1","Bad Salzuflen, Grünstraße Ri Schl","52.0793186029275","8.76608393716082"
"de:05766:2824:0:1","B.S-Schötmar, Domänenweg Ri Plat","52.0648076452616","8.74828831137994"
"de:05766:2825:0:1","B.S-Knetterheide, Bohlenstraße Ri Hain","52.0565119737387","8.72313548342109"
"de:05766:2825:0:2","B.S-Knetterheide, Bohlenstraße Ri ASch","52.0564954029463","8.72312650026825"
"de:05766:2826:0:1","Detmold, Freiligrathschule alle Ri","51.9252391249887","8.88175101316015"
"de:05766:2826:0:2","Detmold, Freiligrathschule","51.9252391249887","8.88175101316015"
"de:05766:2827:0:1","Bad Salzuflen, Lange Straße Ri BS ZOB","52.0851592019085","8.745719129667"
"de:05766:2828:0:1","B.S-Schötmar, Heerser Weg Ri Höh","52.0613282902002","8.75746011043207"
"de:05766:2828:0:2","B.S-Schötmar, Heerser Weg Ri ZOB","52.0613117211943","8.7574870598906"
"de:05766:2829:0:1","B.S-Schötmar, Industriestraße Ri Höh","52.0631177066569","8.75698400333142"
"de:05766:2829:0:2","B.S-Schötmar, Industriestraße Ri ZOB","52.0630845699666","8.75699298648427"
"de:05766:2830:2:2","Bad Salzuflen, R-Brandes-Allee","52.0805883633751","8.75067783003603"
"de:05766:2830:3:1","Bad Salzuflen, R-Brandes-Allee","52.0808864758096","8.75048918382634"
"de:05766:2831:0:1","Bad Salzuflen, Akazienstraße alle Ri","52.09062923987","8.76149354605833"
"de:05766:2832:0:1","Bad Salzuflen, Asenberg.Heide","52.080091504893","8.77121331743386"
"de:05766:2832:0:2","Bad Salzuflen, Asenberg.Heide","52.080091504893","8.77120433428102"
"de:05766:2833:0:1","B.S-Schötmar, Stadtwerke Ri Höh","52.0665748329187","8.75413634388037"
"de:05766:2833:0:2","B.S-Schötmar, Stadtwerke Ri ZOB","52.0665472211494","8.75407346181047"
"de:05766:2834:0:1","Bad Salzuflen, Am Lehmstich Ri Ak","52.0833596281152","8.76602105509092"
"de:05766:2834:0:2","Bad Salzuflen, Am Lehmstich RI BS ZOB","52.083376188941","8.76609292031366"
"de:05766:2835:0:1","Bad Salzuflen, Am Markt Ri BS ZOB","52.0836908434645","8.74750677708264"
"de:05766:2835:0:2","Bad Salzuflen, Am Markt Ri Elk","52.0835859588698","8.74762355806959"
"de:05766:2836:0:1","Bad Salzuflen, Augustastraße Ri ZOB","52.0877866701261","8.75474719827366"
"de:05766:2837:2:1","B.S-Schötmar, Uferstraße Ri Höh","52.0693248796163","8.75387583244794"
"de:05766:2839:0:1","Bad Salzuflen, Beetstraße 28 Ri Hee","52.0847783165768","8.75648992992509"
"de:05766:2839:0:2","Bad Salzuflen, Beetstraße 28 Ri Am","52.0847893567771","8.75649891307793"
"de:05766:2840:0:1","Bad Salzuflen, Föhrenstraße Ri Ak","52.0885539058213","8.76454781802476"
"de:05766:2841:0:1","Bad Salzuflen, Bergstraße","52.0785180832115","8.76170015857371"
"de:05766:2842:0:1","B.S-Schötmar, Berliner Straße Ri Le","52.0697169407531","8.76755717422698"
"de:05766:2842:0:2","B.S-Schötmar, Berliner Straße Ri BS","52.069727984679","8.76756615737983"
"de:05766:2843:0:1","Bad Salzuflen, Vita Sol alle Ri","52.0960875699094","8.75159411162596"
"de:05766:2844:0:1","Bad Salzuflen, Klinik Lipperland Ri ZOB","52.0894535970618","8.75701095278995"
"de:05766:2845:0:1","Bad Salzuflen, Therapiezentrum Ri Bhf","52.0874610049438","8.74567421390279"
"de:05766:2846:0:1","B.S-Breden, Breder Str Ri ZOB","52.0762986362343","8.78641281204328"
"de:05766:2848:0:1","Bad Salzuflen, Siemensstraße Ri Zie","52.0845575119975","8.7348405315748"
"de:05766:2848:0:2","Bad Salzuflen, Siemensstraße Ri ZOB","52.0845575119975","8.73479561581058"
"de:05766:2849:0:1","Bad Salzuflen, Elkenbreder Weg alle Ri","52.0915233699995","8.73227134986186"
"de:05766:2850:0:1","Bad Salzuflen, Forsthausweg alle Ri","52.0984329565432","8.74995917780863"
"de:05766:2851:0:1","B.S-Schötmar, Storksbrede","52.0652604937625","8.74532387094193"
"de:05766:2852:0:1","Bad Salzuflen, Lietholzstr Ri ZOB","52.0863791171057","8.75169292630722"
"de:05766:2853:0:1","Bad Salzuflen, Im Gänsefeld Ri Mar","52.0765802139775","8.75979573017111"
"de:05766:2854:0:1","Bad Salzuflen, Fried-Ebert-Str Ri BS ZOB","52.0855180039577","8.74122755324577"
"de:05766:2854:0:2","Bad Salzuflen, Fried-Ebert-Str Ri Elk","52.0855069639376","8.74122755324577"
"de:05766:2855:0:1","Bad Salzuflen, Haus Bergfried. Ri ZOB","52.0939738570219","8.74295231859152"
"de:05766:2856:0:1","Bad Salzuflen, An d Hellrüsche Ri BS ZOB","52.0948127315637","8.74894408153744"
"de:05766:2857:0:1","Bad Salzuflen, A.Vlothoer Str Ri ZOB","52.097263037919","8.76367645219905"
"de:05766:2858:0:1","Bad Salzuflen, Am Wellenfeld Ri ZOB","52.0886698179808","8.74259299247783"
"de:05766:2859:0:1","Bad Salzuflen, Salzestift alle Ri","52.0973513347347","8.73150778187025"
"de:05766:2860:0:1","B.S-Schötmar, Sandweg","52.0670884087168","8.7422695989755"
"de:05766:2860:0:2","B.S-Schötmar, Sandweg","52.0670773641381","8.74231451473971"
"de:05766:2861:0:1","Bad Salzuflen, Am Steinbrink Ri Bee","52.0895529483565","8.75858300453738"
"de:05766:2862:0:1","B.S-Schötmar, Klinikum Ri ZOB","52.0740183432006","8.7649161272913"
"de:05766:2864:0:1","Bad Salzuflen, Lohfeld Ri Wü","52.0781813085581","8.76346983968367"
"de:05766:2864:0:2","Bad Salzuflen, Lohfeld Ri Loc","52.078175787641","8.76344289022514"
"de:05766:2865:0:1","Bad Salzuflen, Lortzingstraße alle Ri","52.0976107056201","8.72579449666245"
"de:05766:2865:0:2","Bad Salzuflen, Lortzingstraße Ri Sch","52.0976107056201","8.72574958089824"
"de:05766:2867:0:1","Bad Salzuflen, Maiweg Ri Zie","52.0849659996103","8.72949555563354"
"de:05766:2867:0:2","Bad Salzuflen, Maiweg Ri ZOB","52.0849439192944","8.72929792627101"
"de:05766:2868:0:1","Bad Salzuflen, Kurgastzentrum Ri ZOB","52.0857774436423","8.74952798647219"
"de:05766:2868:0:2","Bad Salzuflen, Kurgastzentrum Ri Wü","52.0857774436423","8.74951002016651"
"de:05766:2869:0:1","Bad Salzuflen, Obernbergfriedh alle Ri","52.0949838158824","8.73432849186278"
"de:05766:2870:0:1","Bad Salzuflen, Obernbergstraße Ri BS ZOB","52.094851363564","8.74620421992049"
"de:05766:2871:0:1","Bad Salzuflen, Hegelstraße Ri BS ZOB","52.0920256204226","8.73701445456267"
"de:05766:2872:0:1","Bad Salzuflen, Pohlmannstraße Ri Ak","52.0833265064451","8.76276915376196"
"de:05766:2873:0:1","Bad Salzuflen, Fritz-Reuter-S alle Ri","52.093245347912","8.73487646418616"
"de:05766:2874:0:1","Bad Salzuflen, Am Sonnenberg Ri Am S","52.0914571387525","8.76059523077409"
"de:05766:2875:0:1","Bad Salzuflen, Elkenbrede alle Ri","52.0953039073617","8.7240697313167"
"de:05766:2875:0:2","Bad Salzuflen, Elkenbrede Ri Lor","52.0952873509622","8.72411464708092"
"de:05766:2876:0:1","Bad Salzuflen, Sophienstraße Ri BS ZOB","52.0918545247596","8.74737202979001"
"de:05766:2877:0:1","Bad Salzuflen, Lessingstraße Ri BS ZOB","52.0905022940163","8.73837989379472"
"de:05766:2877:0:2","Bad Salzuflen, Lessingstraße Ri Elk","52.0905022940163","8.73836192748903"
"de:05766:2878:0:1","Bad Salzuflen, Schubertstraße alle Ri","52.0995035155677","8.72804926802591"
"de:05766:2878:0:2","Bad Salzuflen, Schubertstraße Ri Obe","52.0994924790078","8.72805825117875"
"de:05766:2879:0:1","B.S-Schötmar, Am Ziegelhofe Ri Rat","52.0687395424989","8.7493393402625"
"de:05766:2880:0:1","Bad Salzuflen, Uhlandstraße","52.0978148901498","8.74632998406029"
"de:05766:2880:0:2","Bad Salzuflen, Uhlandstraße","52.0978259271248","8.74636591667165"
"de:05766:2882:0:1","Bad Salzuflen, M-Luther-Straße Ri Ak","52.08328234418","8.75319311283191"
"de:05766:2883:0:1","Bad Salzuflen, Walhalla","52.0818249649174","8.77123128373954"
"de:05766:2884:0:1","B.S-Schötmar, Asper Straße","52.0688444619806","8.74712948466326"
"de:05766:2885:0:1","B.S-Schötmar, Wasserfuhr","52.0747250808575","8.76236491188405"
"de:05766:2885:0:2","B.S-Schötmar, Wasserfuhr","52.0747416448871","8.76230202981415"
"de:05766:2886:0:1","Bad Salzuflen, Lindenstraße RiAk","52.0832161007004","8.75565449671074"
"de:05766:2887:0:1","B.S-Schötmar, Weinbergstraße Ri Rat","52.0708544507655","8.74530590463625"
"de:05766:2887:0:2","B.S-Schötmar, Weinbergstraße Ri Loc","52.0710477141497","8.74522505626066"
"de:05766:2888:0:1","B.S-Breden, Bachstraße Ri ZOB","52.0772096166283","8.78063664476558"
"de:05766:2888:0:2","B.S-Breden, Bachstraße Ri Holl","52.077198574553","8.78057376269569"
"de:05766:2889:0:1","B.S-Wüsten, Im Wiesengrund","52.0981680719947","8.80519658463683"
"de:05766:2889:0:2","B.S-Wüsten, Im Wiesengrund","52.0981625535499","8.80519658463683"
"de:05766:2890:71:72","B.S-Schötmar, Bahnhof","52.0702691336988","8.75429804063153"
"de:05766:2891:0:1","B.S-Wüsten, Voßhäger Straße Ri Kre","52.1008002923439","8.79633919593418"
"de:05766:2891:0:2","B.S-Wüsten, Voßhäger Straße Ri Sch","52.1007892561048","8.7964290274626"
"de:05766:2892:0:1","Bad Salzuflen, Ziegelstraße alle Ri","52.08504328063","8.72591127764941"
"de:05766:2893:0:1","Bad Salzuflen, Herforder Str Ri Bhf","52.086759988775","8.73754446058037"
"de:05766:2894:0:1","B.S-Schötmar, Pommernstraße Ri Höh","52.0593178726177","8.75622941849266"
"de:05766:2894:0:2","B.S-Schötmar, Pommernstraße Ri ZOB","52.0593289191154","8.75620246903413"
"de:05766:2895:0:1","Bad Salzuflen, Aldimarkt Ri Zie","52.0862190396368","8.74063466515817"
"de:05766:2896:0:1","Bad Salzuflen, Altenberndstr. Ri ZOB","52.091915236199","8.74319486371827"
"de:05766:2897:0:1","Bad Salzuflen, Kantstraße Ri BS ZOB","52.0873230105055","8.73925125962044"
"de:05766:2897:0:2","Bad Salzuflen, Kantstraße Ri Elk","52.0873340500762","8.73927820907896"
"de:05766:2898:0:1","B.S-Wüsten, Waldemeine/Heide Ri ZOB","52.1091098051366","8.77468979758389"
"de:05766:2898:0:2","B.S-Wüsten, Waldemeine/Heide Ri Wü","52.1090877367682","8.77477962911231"
"de:05766:2901:0:1","B.S-Retzen, Kreuzweg Ri Neb","52.0528165348723","8.82662140416606"
"de:05766:2901:0:2","B.S-Retzen, Kreuzweg Ri Pap","52.0528275829777","8.82662140416606"
"de:05766:2902:0:1","B.S-Papenhausen, Nebel Ri Schi","52.0508057342003","8.83405047156677"
"de:05766:2902:0:2","B.S-Papenhausen, Nebel Ri Kreu","52.0508167828029","8.83405945471961"
"de:05766:2903:0:1","Bad Salzuflen, Talstraße Ri ZOB","52.0919483514948","8.75984064593532"
"de:05766:2904:0:1","Detmold, Berliner Allee alle Ri","51.9264744862943","8.88507477971186"
"de:05766:2906:0:1","B.S-Lockhausen, Grundschule Ri Kli","52.0641891130608","8.6854870898584"
"de:05766:2906:0:2","B.S-Lockhausen, Grundschule Ri Spe","52.0641835904133","8.6855499719283"
"de:05766:2907:0:1","B.S-Ahmsen, Am Speckenbaum Ri Rav","52.0831498571226","8.67533612714644"
"de:05766:2907:0:2","B.S-Ahmsen, Am Speckenbaum Ri Grü","52.0831553774245","8.67530917768791"
"de:05766:2909:0:1","B.S-Lockh., Altenhagener Str Ri Söl","52.0547554355324","8.67131167467302"
"de:05766:2910:0:1","B.S-Lockhausen, Königskrug Ri ImH","52.0644707671788","8.68304367228525"
"de:05766:2910:0:2","B.S-Lockhausen, Königskrug Ri Gru","52.0644707671788","8.68307960489662"
"de:05766:2913:0:1","B.S-Lockhausen, Im Heideloh Ri Auf","52.069600979367","8.68151653630204"
"de:05766:2913:0:2","B.S-Lockhausen, Im Heideloh Ri Kön","52.0690819104236","8.68162433413615"
"de:05766:2914:0:1","B.S-Ahmsen, Ravensberger Str. Ri Sie","52.087615558208","8.68505589852196"
"de:05766:2915:0:1","B.S-Lockhausen, Auf dem Sepp Ri Im","52.0770384641544","8.68316943642505"
"de:05766:2915:0:2","B.S-Lockhausen, Auf dem Sepp Ri ImH","52.0770274220367","8.68317841957789"
"de:05766:2916:0:1","B.S-Ahmsen, Schule Ri Rek","52.0884987094491","8.69341023066544"
"de:05766:2917:0:1","B.S-Lockhausen, Sperlingsweg Ri Gru","52.0642719526916","8.69242208385277"
"de:05766:2917:0:2","B.S-Lockhausen, Sperlingsweg Ri Schö","52.0642719526916","8.6923861512414"
"de:05766:2918:0:1","B.S-Ahmsen, Im Strüh Ri Am","52.0809085581329","8.67779751102526"
"de:05766:2918:0:2","B.S-Ahmsen, Im Strüh Ri Auf","52.0808754346438","8.67785140994232"
"de:05766:2920:0:1","B.S-Wülfer-Bexten, Waldkrug Ri Ueb","52.0489274320518","8.70442357605027"
"de:05766:2920:0:2","B.S-Wülfer-Bexten, Waldkrug Ri Auf","52.0489329565856","8.70437866028606"
"de:05766:2921:0:1","B.S-Werl, Dorf Ri Kr","52.0755532748117","8.72712400328314"
"de:05766:2922:0:1","B.S-Werl, Krug Ri Zie","52.0788438136559","8.72542618739591"
"de:05766:2922:0:2","B.S-Werl, Krug Ri Rie","52.0788051677953","8.72539025478454"
"de:05766:2923:0:1","B.S-Ahmsen, Meerbrede Ri Rek","52.0877314728049","8.70082133176046"
"de:05766:2924:0:1","B.S-Werl, Riedweg Ri Flu","52.079798907866","8.72066511638942"
"de:05766:2925:0:1","B.S-Ahmsen, Veilchenduft Ri AmS","52.0853800035109","8.71092737870821"
"de:05766:2929:0:1","Bad Salzuflen, Ginsterstraße Ri Ak","52.0829676867765","8.75931962307046"
"de:05766:2930:0:1","B.S-Wüsten, Salzufler Str 21 Ri Ros","52.1016445565345","8.78693383490814"
"de:05766:2930:0:2","B.S-Wüsten, Salzufler Str 21 Ri Kli","52.1016611105745","8.78685298653256"
"de:05766:2931:0:1","Bad Salzuflen, Mozartstraße 36 alle Ri","52.0935544138357","8.72371040520301"
"de:05766:2933:0:1","B.S-Retzen, Wilhelm-Blanke-Str Ri PapS","52.0501759593371","8.79418323925199"
"de:05766:2933:0:2","B.S-Retzen, Wilhelm-Blanke-Str Ri Le","52.050198056851","8.79418323925199"
"de:05766:2934:0:1","Bad Salzuflen, Raatstaken","52.0926382478999","8.72841757729245"
"de:05766:2934:0:2","Bad Salzuflen, Raatstaken","52.0926603244088","8.72839961098676"
"de:05766:2935:0:1","B.S-Hölserheide, Pivitsort alle Ri","52.0361142006701","8.76930888903126"
"de:05766:2938:0:1","B.S-Hölserheide, Schlehenweg Ri Höh","52.0332460533415","8.77238112730338"
"de:05766:2938:0:2","B.S-Hölserheide, Schlehenweg Ri ZOB","52.0332792121653","8.77237214415053"
"de:05766:2967:0:1","B.S-Hölserheide, Haselweg Ri Höh","52.0318146740024","8.77376453284111"
"de:05766:2967:0:2","B.S-Hölserheide, Haselweg Ri ZOB","52.0318478338877","8.77373758338259"
"de:05766:2978:0:1","B.S-Hölserheide, Abzw.Zieg'mus Ri Höh","52.0293773550952","8.77614506834436"
"de:05766:2978:0:2","B.S-Hölserheide, Abzw.Zieg'mus Ri ZOB","52.0293607742395","8.77610913573299"
"de:05766:3044:0:1","Detmold, Finanzamt Ri Lan","51.9398840008301","8.87844521291413"
"de:05766:3044:0:2","Detmold, Finanzamt Ri Reg","51.9398729248181","8.87844521291413"
"de:05766:3047:0:1","Dt-Brokhausen, Meierteich Ri Lehm","51.9714339922479","8.94886414804606"
"de:05766:3047:0:2","Dt-Brokhausen, Meierteich Ri Bark","51.9714450604661","8.94886414804606"
"de:05766:3048:0:1","Dt-Mosebeck, Bieser Berg Ri Auf","51.9634254199161","8.96266227081206"
"de:05766:3048:0:2","Dt-Mosebeck, Bieser Berg Ri Mit","51.963486305961","8.9627970181047"
"de:05766:3049:0:1","Detmold, Niemeierstraße Ri Rea","51.9545296336364","8.85163948483227"
"de:05766:3049:0:2","Detmold, Niemeierstraße Ri We","51.9544410543937","8.85173829951354"
"de:05766:3050:0:1","Detmold, Abzw. Mart-Luther-Str Ri Bf","51.934711205642","8.86239231878468"
"de:05766:3050:0:2","Detmold, Abzw. Mart-Luther-Str Ri Stern","51.9343068828166","8.86214079050509"
"de:05766:3051:0:1","Detmold, Alexanderweg ale Ri","51.9346170485972","8.84876487592269"
"de:05766:3052:0:1","Detmold, Allee Ri Pi","51.9326341661125","8.87732231880883"
"de:05766:3052:0:2","Detmold, Allee Ri Be","51.9320359608959","8.87676536333259"
"de:05766:3058:0:1","Detmold, Technische Hochschule Ri Bf","51.9359629217008","8.86436861241002"
"de:05766:3059:0:1","Detmold, Bielefelder Straße Ri Bf","51.9387763860886","8.84708502634115"
"de:05766:3060:2:1","Detmold, Blomberger Straße Ri No","51.9369266085028","8.88525444276871"
"de:05766:3060:2:2","Detmold, Blomberger Straße Ri Eh","51.9368989166422","8.88522749331018"
"de:05766:3061:0:1","Detmold, Brauerei Strate Ri Bül","51.934140721695","8.87056698787131"
"de:05766:3062:0:1","Detmold, Braunenbruch Ri Ber","51.9415121448547","8.85596936450233"
"de:05766:3062:0:2","Detmold, Braunenbruch Ri Pi","51.9414789180163","8.85605919603076"
"de:05766:3063:0:1","Detmold, Ehrenfriedhof Ri Bl","51.9348219783831","8.89240503243129"
"de:05766:3063:0:2","Detmold, Ehrenfriedhof Ri Fa","51.9348164397525","8.89243198188982"
"de:05766:3064:0:1","Detmold, Elisabethstraße Ri Be","51.9395240290386","8.8685547616346"
"de:05766:3065:0:1","Detmold, Falkenkrug Ri Eh","51.9331991303835","8.89800153665214"
"de:05766:3065:0:2","Detmold, Falkenkrug Ri Me","51.9331991303835","8.89794763773508"
"de:05766:3066:0:1","Detmold, Feldstraße Ri Bf","51.9448623913724","8.88553292050682"
"de:05766:3066:0:2","Detmold, Feldstraße Ri Her","51.9448679287628","8.88552393735398"
"de:05766:3067:0:1","Detmold, Freilichtmuseum Ri Pi","51.9234054094191","8.86668626584337"
"de:05766:3067:0:2","Detmold, Freilichtmuseum Ri Be","51.9230674657465","8.86602151253303"
"de:05766:3070:2:1","Detmold, Landesmuseum Ri Pi","51.937851506829","8.87642400352458"
"de:05766:3070:2:2","Detmold, Landesmuseum Ri Be","51.9378238155393","8.87639705406605"
"de:05766:3071:0:1","Detmold, Gericht Ri Bf","51.9364724598301","8.87422313107818"
"de:05766:3071:0:2","Detmold, Gericht Ri Pi/Krh","51.9364835366817","8.87422313107818"
"de:05766:3072:0:1","Detmold, Abzw. Humboldtstr Ri Bf","51.9319916490812","8.85677784825815"
"de:05766:3072:0:2","Detmold, Abzw. Humboldtstr Ri Stern","51.9320858116352","8.85673293249394"
"de:05766:3073:2:1","Detmold, Hasselter Platz Ri Bf","51.937463827217","8.88336798067179"
"de:05766:3073:2:2","Detmold, Hasselter Platz Ri Her","51.9374139824523","8.8834757785059"
"de:05766:3074:0:1","Detmold, Humboldtstraße alle Ri","51.9327172495396","8.85323848603823"
"de:05766:3075:0:1","Detmold, Im Langen Feld Ri Leo","51.9294048710633","8.88596411184326"
"de:05766:3075:0:2","Detmold, Im Langen Feld Ri Krö","51.9288010834247","8.88805718645555"
"de:05766:3076:0:1","Detmold, Johannettental Ri Bf","51.9276710370252","8.88897346804548"
"de:05766:3076:0:2","Detmold, Johannettental Ri Mei","51.9276267209003","8.88898245119832"
"de:05766:3078:0:1","Detmold, Katholische Kirche Ri Bf","51.9468170477152","8.88033167501105"
"de:05766:3078:0:2","Detmold, Katholische Kirche Ri Her","51.9468336591604","8.88030472555252"
"de:05766:3079:0:1","Detmold, Klingenbergstraße","51.9464294455799","8.85596936450233"
"de:05766:3079:0:2","Detmold, Klingenbergstraße Ri Kr","51.9464405199731","8.85598733080802"
"de:05766:3080:0:1","Detmold, Georgstraße Ri Ern","51.9495190952412","8.87861589281814"
"de:05766:3080:0:2","Detmold, Georgstraße","51.9500118691432","8.87959505647797"
"de:05766:3081:0:1","Detmold, Robert-Koch-Straße Ri Bf","51.9396957082533","8.8814006701993"
"de:05766:3081:0:2","Detmold, Robert-Koch-Straße Ri Her","51.9396458659683","8.88136473758793"
"de:05766:3082:0:1","Detmold, Kreishaus alle Ri","51.9366053818687","8.84935776401029"
"de:05766:3083:0:1","Detmold, Lemgoer Straße Ri Bf","51.9483951075412","8.8795591238666"
"de:05766:3083:0:2","Detmold, Lemgoer Straße Ri Her","51.9486387328821","8.87954115756091"
"de:05766:3084:0:1","Detmold, Leopoldinum Ri Bf","51.9306068828205","8.88271221051429"
"de:05766:3084:0:2","Detmold, Leopoldinum Ri Mei","51.93005850357","8.88361950895138"
"de:05766:3085:0:1","Detmold, Lippischer Hof Ri Wee","51.9332157468721","8.87668451495701"
"de:05766:3085:0:2","Detmold, Lippischer Hof Ri Wee/Leo/All","51.933160358553","8.87661264973427"
"de:05766:3087:0:1","Detmold, Marienstraße Ri Bf","51.942038233183","8.88367340786844"
"de:05766:3087:0:2","Detmold, Marienstraße Ri Her","51.9419994689904","8.88369137417412"
"de:05766:3088:0:1","Detmold, Martin-Luther-Straße alle Ri","51.934124105549","8.85726293851165"
"de:05766:3089:0:1","Detmold, Obere Mühle","51.9271115427375","8.87115089280607"
"de:05766:3090:0:1","Detmold, Palaisgarten","51.9304794821781","8.87537297464202"
"de:05766:3092:0:1","Detmold, Im Lindenort Ri Bf","51.9376908971105","8.8523222044483"
"de:05766:3092:0:2","Detmold, Im Lindenort Ri Pi/Kr","51.9377130502093","8.85223237291988"
"de:05766:3093:2:1","Detmold, Rosental","51.9365943050472","8.88092456309865"
"de:05766:3093:3:3","Detmold, Rosental","51.9367936874159","8.88052930437358"
"de:05766:3094:0:1","Detmold, Schubertplatz Ri Bf","51.9356139955134","8.87041427427299"
"de:05766:3096:0:1","Dt-Heidenoldend, Sichterheide Ri Ber","51.9424590994034","8.84580043548469"
"de:05766:3097:0:1","Dt-Heidenoldend, Sichterwiese Ri Ber","51.9420991482751","8.85117236088447"
"de:05766:3098:0:1","Detmold, Siegfriedstraße Ri Kan","51.9450838864555","8.88733853422815"
"de:05766:3098:0:2","Detmold, Siegfriedstraße Ri Weer","51.9446796571053","8.8872846353111"
"de:05766:3099:0:1","Detmold, Sprottauer Straße Ri Bf","51.936959838713","8.85825108532431"
"de:05766:3100:0:1","Detmold, Stadtgymnasium alle Ri","51.9348884418964","8.86166468340444"
"de:05766:3101:0:1","Detmold, Weerthplatz Ri Pi","51.9340797957963","8.88237983385912"
"de:05766:3101:0:2","Detmold, Weerthplatz Ri Ber","51.9344398112708","8.88261339583303"
"de:05766:3102:0:1","Detmold, Weerthschule Ri Sie","51.9389093013014","8.88425731280319"
"de:05766:3102:0:2","Detmold, Weerthschule Ri Hass","51.9401387483525","8.88487715034932"
"de:05766:3103:0:1","Detmold, Willi-Hofmann-Straße Ri Bf","51.9282083665575","8.88584733085631"
"de:05766:3103:0:2","Detmold, Willi-Hofmann-Straße Ri Mei","51.928197287663","8.88581139824494"
"de:05766:3104:0:2","Detmold, Agentur für Arbeit Ri Ber","51.9418997894843","8.86265283021711"
"de:05766:3108:0:1","Dt-Heidenoldend, Kreuzung Ri Ber","51.9427249076133","8.84165920202432"
"de:05766:3109:0:1","Dt-Heidenoldend, Niedernkrug Ri Ber","51.9453496791115","8.83979070623309"
"de:05766:3109:0:2","Dt-Heidenoldend, Niedernkrug Ri Pi","51.9454216643515","8.83965595894045"
"de:05766:3110:0:1","Dt-Heidenoldend, Oberkrüger","51.9416062874299","8.83238858829091"
"de:05766:3112:0:1","Detmold, Ernst-Hilker-Straße Ri Lem","51.9531400266074","8.87960403963081"
"de:05766:3112:0:2","Detmold, Ernst-Hilker-Straße","51.9531510993436","8.87965793854786"
"de:05766:3115:0:1","Detmold, Irmgardstraße Ri Bf","51.9486055113227","8.88290085672399"
"de:05766:3115:0:2","Detmold, Irmgardstraße Ri Her","51.9486055113227","8.88282899150125"
"de:05766:3116:0:1","Detmold, Lilienthalstraße Ri Bf","51.9479687600099","8.88813803483113"
"de:05766:3116:0:2","Detmold, Lilienthalstraße Ri Her","51.9479521489851","8.88810210221976"
"de:05766:3117:0:1","Dt-Klüt, Mittelstraße Ri Alt","51.9569544224397","8.88119405768392"
"de:05766:3117:0:2","Dt-Klüt, Mittelstraße Ri A-H-F","51.9569378147433","8.8811042261555"
"de:05766:3120:0:1","Dt-Rödlingh., Meiersfelder Str Ri Fa","51.933276673944","8.90474788443681"
"de:05766:3120:0:2","Dt-Rödlingh., Meiersfelder Str Ri Bf 702","51.9332822127647","8.9047658507425"
"de:05766:3121:0:1","Dt-Meiersfeld, Abzw. Nordring Ri GiZ","51.9322242856205","8.92055823343952"
"de:05766:3121:0:3","Dt-Meiersfeld, Abzw. Nordring Ri Re","51.931853174378","8.92279503849729"
"de:05766:3122:0:1","Dt-Meiersfeld, Abzw.Remmighsn alle Ri","51.9288841739488","8.91855499035565"
"de:05766:3124:0:1","Dt-Spork-Eichh, Dreierkrug Ri Dt Bf","51.9220924008898","8.89971731884504"
"de:05766:3124:0:2","Dt-Spork-Eichh, Dreierkrug Ri Remm","51.9220480792567","8.89965443677515"
"de:05766:3125:0:1","Dt-Spork-Eichh, Echternkampstr Ri Bf","51.9297538455353","8.90587976169496"
"de:05766:3125:0:2","Dt-Spork-Eichh, Echternkampstr Ri Mei","51.9297427670223","8.90586179538928"
"de:05766:3126:0:1","Dt-Spork-Eichh, Falkenkrugstr Ri Bf","51.9290835905788","8.9003641058497"
"de:05766:3126:0:2","Dt-Spork-Eichh, Falkenkrugstr Ri Mei","51.9291112872628","8.90038207215538"
"de:05766:3127:0:1","Dt-Mosebeck, Dickewiedsweg Ri An d","51.9557088281329","8.95621236707118"
"de:05766:3128:0:1","Dt-Meiersfeld, Im Gr. Winkel Ri Bf","51.9323793759767","8.90752367866513"
"de:05766:3128:0:2","Dt-Meiersfeld, Im Gr. Winkel Ri Mei","51.9323793759767","8.90751469551229"
"de:05766:3129:0:1","Dt-Spork-Eichh, Kröppelgrund Ri Dt Bf (709/772etc)","51.9247959377581","8.89637558598765"
"de:05766:3129:0:2","Dt-Spork-Eichh, Kröppelgrund Ri Remm","51.9247959377581","8.89627677130639"
"de:05766:3129:0:3","Dt-Spork-Eichh, Kröppelgrund Ri Bf (702)","51.9249011951216","8.89665406372577"
"de:05766:3129:0:4","Dt-Spork-Eichh, Kröppelgrund Ri Mei","51.9249288943868","8.89667203003146"
"de:05766:3130:0:1","B.S-Hölserh, Sylbacher Str.295 Ri Höh","52.0286422645875","8.77406996003775"
"de:05766:3130:0:2","B.S-Hölserh, Sylbacher Str.295 Ri ZOB","52.0286588457096","8.77405199373207"
"de:05766:3131:0:1","Dt-Rödlinghausen Ri Me","51.933747471256","8.91287763775923"
"de:05766:3131:0:2","Dt-Rödlinghausen Ri Gi","51.9337696263019","8.91283272199501"
"de:05766:3132:0:1","Dt-Spork-Eichh, Rödlinghsr Str Ri Bf","51.9295378140393","8.9091047135654"
"de:05766:3132:0:2","Dt-Spork-Eichh, Rödlinghsr Str Ri Mei","51.9295211961888","8.90906878095403"
"de:05766:3133:0:1","Dt-Spork-Eichh, Werrebogen Ri Bf","51.9268068646972","8.89760627792707"
"de:05766:3133:0:2","Dt-Spork-Eichh, Werrebogen Ri Mei","51.9268179439349","8.89765119369128"
"de:05766:3134:0:1","Dt-Heidenoldend, Bauhof Ri Wa","51.952104713695","8.81908453893125"
"de:05766:3135:0:1","Dt-Heidenoldend, Mühlenbrink Ri Bf","51.9450340501572","8.82614529706541"
"de:05766:3136:0:1","Dt-Remmighausen, Brinkmann Ri Blo","51.9203970672486","8.91538393740227"
"de:05766:3136:0:2","Dt-Remmighausen, Brinkmann Ri Ell","51.9203970672486","8.91533003848521"
"de:05766:3137:0:1","Dt-Heidenoldend, Plantageneck Ri Ber","51.9416782786776","8.82405222245312"
"de:05766:3137:0:2","Dt-Heidenoldend, Plantageneck Ri Pi","51.941694892026","8.82411510452302"
"de:05766:3138:0:1","Dt-Heidenoldend, Schwarzenbrk Ri Ber","51.9393966537129","8.80866408163402"
"de:05766:3139:0:1","Dt-Heidenoldend, Waldfriedhof Ri Be","51.9404710255556","8.81585958706081"
"de:05766:3139:0:2","Dt-Heidenoldend, Waldfriedhof Ri Pi","51.9405153289967","8.8158146712966"
"de:05766:3140:0:1","Dt-Heidenoldend, Waldheide Ri Bf","51.94893772581","8.82875041138972"
"de:05766:3141:0:1","Dt-Klüt, Abzw. Brokhausen","51.9679252293107","8.89524370872951"
"de:05766:3142:0:1","Dt-Klüt, Alte Schule Ri Heid","51.9620526944071","8.88644021894391"
"de:05766:3143:0:1","Dt-Hohenwart, Am Holz Ri Brok","51.9516728648807","8.92771780625495"
"de:05766:3144:0:1","Dt-Herberhausen, Apenberg Ri Det","51.9587314104159","8.9086825053818"
"de:05766:3144:0:2","Dt-Herberhausen, Apenberg Ri Brok","51.9587424817713","8.90863758961759"
"de:05766:3145:0:1","Dt-Jerxen-Orbke, A.d.Schinken alle Ri","51.9592849748361","8.87322600111267"
"de:05766:3147:0:1","Dt-Brokhausen, Schützenplatz alle Ri","51.9648534526445","8.92644219855132"
"de:05766:3148:0:1","Dt-Brokhausen, Kindergarten Ri Det","51.9667076132965","8.92481624788684"
"de:05766:3149:0:1","Dt-Brokhausen, Feuerwache Ri Dt","51.9690376586595","8.9135064584582"
"de:05766:3150:0:1","Dt-Hakedahl, Ch-Lindbergh-Ring Ri Pog","51.9451890962369","8.90861064015906"
"de:05766:3151:0:1","Dt-Jerxen-Orbke,Heimstättenstr","51.9597167503388","8.8761095931751"
"de:05766:3151:0:2","Dt-Jerxen-Orbke,Heimstättenstr","51.959705679224","8.8761095931751"
"de:05766:3152:0:1","Dt-Hohenwart, Mitte Ri Am H","51.9482732943744","8.92451082069019"
"de:05766:3153:0:1","Dt-Jerxen-Orbke, Jerxer Str alle Ri","51.9562513579069","8.87493280015273"
"de:05766:3154:0:1","Dt-Jerxen-Orbke, Klüter Str alle Ri","51.9584823041968","8.86685694574738"
"de:05766:3155:0:1","Dt-Herberhsn, Schlingenbusch Ri Bf","51.9548894850101","8.9006605498935"
"de:05766:3155:0:2","Dt-Herberhsn, Schlingenbusch Ri Brok","51.9548894850101","8.90058868467076"
"de:05766:3156:0:1","Dt-Jerxen-Orbke, Auguste-Bracht-Weg alle Ri","51.956965494234","8.86813255345101"
"de:05766:3158:0:1","Dt-Vahlhsn, Abzw. Diestelbruch Ri Va","51.9434337218059","8.93776995428564"
"de:05766:3158:0:2","Dt-Vahlhsn, Abzw. Diestelbruch Ri Gi","51.9434281842385","8.93774300482712"
"de:05766:3159:0:1","Dt-Remmighsn, Im Wiesengr. Ri Dt Bf","51.9192501875982","8.90195412390281"
"de:05766:3159:0:2","Dt-Remmighsn, Im Wiesengr. Ri Remm","51.9192723498015","8.90192717444429"
"de:05766:3160:0:1","Dt-Diestelbr., Leistruper Wald Ri Ha","51.9309669261591","8.94910669317281"
"de:05766:3160:0:2","Dt-Diestelbr., Leistruper Wald Ri Al","51.9308949177224","8.94907974371428"
"de:05766:3161:0:1","Dt-Remmighausen, Ellernberg Ri Remm","51.9170339120267","8.91389273403042"
"de:05766:3161:0:2","Dt-Remmighausen, Ellernberg Ri Bri","51.9170616161466","8.91396459925316"
"de:05766:3162:0:1","Dt-Remmighausen, Fabrikstraße Ri Dt Bf","51.9163191398238","8.90536772198294"
"de:05766:3162:0:2","Dt-Remmighausen, Fabrikstraße Ri Remm","51.9162969761627","8.90537670513578"
"de:05766:3163:0:1","Dt-Diestelbr, Hanseatenviertel Ri No","51.9293993317641","8.94580089292679"
"de:05766:3163:0:2","Dt-Diestelbr, Hanseatenviertel Ri Le","51.9288010834247","8.94409409388673"
"de:05766:3164:0:1","Dt-Diestelbruch, Feuerwehr Ri Lei","51.9344785819958","8.94572902770405"
"de:05766:3164:0:2","Dt-Diestelbruch, Feuerwehr Ri Di","51.9343899631466","8.94567512878699"
"de:05766:3165:0:1","Dt-Remmighausen, Kirche Ri Dt Bf","51.9134377721495","8.90941912391489"
"de:05766:3165:0:2","Dt-Remmighausen, Kirche Ri Ho/Ell","51.9132216621202","8.90998506254396"
"de:05766:3166:0:1","Dt-Diestelbruch, Alter Krug Ri Di","51.9329443434556","8.95387674733215"
"de:05766:3166:0:2","Dt-Diestelbruch, Alter Krug Ri Br","51.9329332657303","8.95388573048499"
"de:05766:3167:0:1","Dt-Meiersfeld, Neu Meiersfeld Ri Rö","51.9366607659352","8.9218877400602"
"de:05766:3167:0:2","Dt-Meiersfeld, Neu Meiersfeld Ri Va","51.9372146028402","8.92314538145814"
"de:05766:3168:0:1","Dt-Remmighausen, Siedlung Ri Kir","51.9115537010055","8.91412629600433"
"de:05766:3168:0:2","Dt-Remmighausen, Siedlung Ri Ort","51.9115481595032","8.91410832969864"
"de:05766:3169:0:1","Dt-Vahlhsn, Vahlhauser Höhe Ri Me","51.9404710255556","8.9274752611282"
"de:05766:3169:0:2","Dt-Vahlhsn, Vahlhauser Höhe Ri Di","51.9404433358827","8.92743034536399"
"de:05766:3170:0:1","Dt-Bentrup, Abzw. Heiden Ri Lemgo","51.9871038503774","8.88143660281067"
"de:05766:3170:0:2","Dt-Bentrup, Abzw. Heiden Ri Detmold","51.9866557420177","8.88166118163173"
"de:05766:3171:0:1","Dt-Bentrup, Bahmeier Ri Dt","51.9913081054858","8.88114914191971"
"de:05766:3173:0:1","Detmold-Altenkamp Ri Mitte","51.9572755033622","8.96799826360047"
"de:05766:3173:0:2","Detmold-Altenkamp Ri Ost","51.9576906908011","8.96709096516339"
"de:05766:3174:0:1","Dt-Mosebeck, Bieser Weg Ri Kind","51.9580560525668","8.94930432253534"
"de:05766:3174:0:2","Dt-Mosebeck, Bieser Weg Ri Lehm","51.9580560525668","8.9492953393825"
"de:05766:3175:0:1","Dt-Mosebeck, Mitte Ri Bies","51.9581556961679","8.955538630608"
"de:05766:3175:0:2","Dt-Mosebeck, Mitte Ri Kind","51.9581114101503","8.95556558006653"
"de:05766:3176:0:1","Dt-Vahlhausen, Dahlsheide Ri Do","51.9462633293536","8.95156807705164"
"de:05766:3176:0:2","Dt-Vahlhausen, Dahlsheide Ri Ni","51.9463242387081","8.95147824552322"
"de:05766:3177:0:1","Detmold-Niederschönhagen Ri Da","51.947282165856","8.96388397959863"
"de:05766:3178:0:1","Dt-Oberschönhagen, Brinkmann Ri Al","51.9370373757744","8.96815097719879"
"de:05766:3178:0:2","Dt-Oberschönhagen, Brinkmann Ri Me","51.9370041456217","8.96826775818575"
"de:05766:3179:0:1","Dt-Oberschönhagen, Capelle Ri Me","51.9203472035252","8.96817792665732"
"de:05766:3179:0:2","Dt-Oberschönhagen, Capelle Ri Rä","51.9203416631081","8.96812402774027"
"de:05766:3180:0:1","Dt-Oberschönhagen, Meierjohann Ri Sc","51.924247487502","8.96957929850074"
"de:05766:3180:0:2","Dt-Oberschönhagen, Meierjohann Ri Ca","51.9242696472382","8.96949845012516"
"de:05766:3181:0:1","Dt-Oberschönhagen, Schulweg Ri Me","51.9272444925069","8.97027998442245"
"de:05766:3181:0:2","Dt-Oberschönhagen, Schulweg Ri Me","51.9273165068009","8.97027998442245"
"de:05766:3182:0:1","Dt-Schönemark, Abzw. Lenstrup Ri Ort","51.9077908635342","8.93555111553356"
"de:05766:3182:0:2","Dt-Schönemark, Abzw. Lenstrup Ri Gut","51.9077908635342","8.93536246932387"
"de:05766:3183:0:2","Dt-Schönemark, Wilberger Str Ri Hor","51.9089324940797","8.92399878097817"
"de:05766:3184:0:1","Dt-Schönemark, Ort Ri Sie","51.9092760859411","8.92270520696886"
"de:05766:3184:0:2","Dt-Schönemark, Ort Ri Wil","51.9092262098663","8.92258842598191"
"de:05766:3185:0:1","Dt-Heiligenk., Friedrichshöhe Ri Pi","51.9160088475735","8.86877035730282"
"de:05766:3185:0:2","Dt-Heiligenk., Friedrichshöhe Ri Be","51.9159977656678","8.86875239099713"
"de:05766:3186:0:1","Dt-Heiligenkirchen, Grotenhof Ri Sch","51.9076190622507","8.87955014071375"
"de:05766:3186:0:2","Dt-Heiligenkirchen, Grotenhof Ri Mi","51.9076578561464","8.87957709017228"
"de:05766:3187:0:1","Dt-Hornoldendorf, Mitte","51.9045597809727","8.89643846805755"
"de:05766:3188:0:1","Dt-Heiligenkirchen, Kirchweg Ri Pi","51.9109330484963","8.87495076645842"
"de:05766:3188:0:2","Dt-Heiligenkirchen, Kirchweg Ri Be","51.9109330484963","8.87490585069421"
"de:05766:3189:0:1","Dt-Heiligenkirchen, Mitte Ri Pi","51.908594441457","8.8768731611667"
"de:05766:3189:0:2","Dt-Heiligenkirchen, Mitte Ri Ber","51.9085778158525","8.87680129594396"
"de:05766:3190:0:1","Dt-Hornoldendorf, Aussicht Ri Mit","51.9002642427452","8.90138818527374"
"de:05766:3190:0:2","Dt-Hornoldendorf, Aussicht Ri Jäg","51.9002254424636","8.90150496626069"
"de:05766:3191:1:1","Dt-Heiligenkirchen, Schule Ri Am","51.9078407412031","8.87602874479951"
"de:05766:3191:1:2","Dt-Heiligenkirchen, Schule Ri Gro","51.9078296572815","8.87602874479951"
"de:05766:3192:0:1","Dt-Heiligenkir, Sommerkorn Ri Pi","51.9037339610007","8.87882250533352"
"de:05766:3192:0:2","Dt-Heiligenkir, Sommerkorn Ri Be","51.903905777145","8.8788404716392"
"de:05766:3193:0:1","Dt-Berlebeck, Adlerwarte Ri Pi","51.8909955663951","8.87254328149664"
"de:05766:3193:0:2","Dt-Berlebeck, Adlerwarte Ri Ber","51.891056550777","8.87241751735685"
"de:05766:3194:0:1","Dt-Berlebeck, Freibad Ri Pi","51.900541386639","8.87957709017228"
"de:05766:3194:0:2","Dt-Berlebeck, Freibad Ri Be","51.9003473860929","8.87963098908934"
"de:05766:3195:0:1","Dt-Berlebeck, Forelle Ri Pi","51.8952975343282","8.87878657272215"
"de:05766:3195:0:2","Dt-Berlebeck, Forelle Ri Be","51.8952642732694","8.87870572434656"
"de:05766:3196:0:1","Dt-Berlebeck, Im Hoffeld Ri Pi","51.8921376238092","8.87054902156562"
"de:05766:3196:0:2","Dt-Berlebeck, Im Hoffeld Ri Ber","51.8920932726066","8.8703963079673"
"de:05766:3197:0:1","Dt-Berlebeck, Kanne Ri Pi","51.892996919719","8.87645095298311"
"de:05766:3197:0:2","Dt-Berlebeck, Kanne Ri Be","51.8926587471605","8.87603772795236"
"de:05766:3199:0:1","Dt-Berlebeck, Im Märchengrund Ri Pi","51.8870369485873","8.87061190363552"
"de:05766:3199:0:2","Dt-Berlebeck, Im Märchengrund Ri Ber","51.8870036814141","8.87058495417699"
"de:05766:3200:1:1","Dt-Schling, Am Höwel Ri Ber","51.9070981124058","8.86778221049015"
"de:05766:3200:1:2","Dt-Schling, Am Höwel Ri Sch","51.9070426918539","8.8678361094072"
"de:05766:3201:0:1","Dt-Schling, Berghotel Ri Vog","51.9024647181567","8.8598770359888"
"de:05766:3202:0:1","Dt-Schling, Dierkshof Ri Spr","51.9028305298165","8.85612207810065"
"de:05766:3203:0:1","Dt-Schling, Vogelpark Ri Die","51.9007132149946","8.85679581456384"
"de:05766:3203:0:2","Dt-Schling, Vogelpark Ri Berg","51.9002365282618","8.85632869061603"
"de:05766:3204:0:1","Dt-Schling, Schwalbenweg Ri Am","51.905485346387","8.85887990602328"
"de:05766:3205:0:1","Dt-Schling, Sprengerweg Ri Sch","51.9045154420311","8.85742463526281"
"de:05766:3206:0:1","Dt-Hiddesen, Akazienstr Ri Aug","51.9250119920797","8.84721977363379"
"de:05766:3206:0:2","Dt-Hiddesen, Akazienstr Ri Neu","51.9249898327099","8.84720180732811"
"de:05766:3207:0:1","Dt-Hiddesen, Auf den Klippen Ri Bf","51.9308949177224","8.85216949084998"
"de:05766:3207:0:2","Dt-Hiddesen, Auf den Klippen Ri Stern","51.9310223171855","8.85251085065799"
"de:05766:3208:0:1","Dt-Hiddesen, Efeuweg Ri Oett","51.927698734581","8.8386498458221"
"de:05766:3208:0:2","Dt-Hiddesen, Efeuweg Ri St","51.9274106791649","8.83838933438967"
"de:05766:3209:0:1","Dt-Hiddesen, Freibad Ri Mai","51.9211450164533","8.84005121766552"
"de:05766:3209:0:2","Dt-Hiddesen, Freibad Ri Kre","51.9211283954952","8.84006020081836"
"de:05766:3210:0:1","Dt-Hiddesen, Friedenstal Ri Bf","51.9209621855762","8.86029924417239"
"de:05766:3210:0:2","Dt-Hiddesen, Friedenstal Ri St","51.9209898872721","8.86030822732523"
"de:05766:3211:0:1","Dt-Hiddesen, Augustinum Ri Bf","51.9223527896005","8.8473904535378"
"de:05766:3211:0:2","Dt-Hiddesen, Augustinum Ri St","51.9223527896005","8.8473904535378"
"de:05766:3212:0:1","Dt-Hiddesen, Hiddeser Str Ri Bf","51.9241366886567","8.83893730671306"
"de:05766:3212:0:2","Dt-Hiddesen, Hiddeser Str Ri St","51.924153308501","8.83873967735052"
"de:05766:3213:0:1","Dt-Hiddesen, Hülsenweg Ri Bf","51.9238319904222","8.83625134401317"
"de:05766:3213:0:2","Dt-Hiddesen, Hülsenweg Ri Stern","51.9239040101916","8.83525421404765"
"de:05766:3214:0:1","Dt-Hiddesen, Hünenweg Ri Bf","51.9215217565185","8.8536337447633"
"de:05766:3214:0:2","Dt-Hiddesen, Hünenweg Ri Stern","51.9215051356999","8.85365171106898"
"de:05766:3215:0:1","Dt-Hiddesen, Kreuzweg Ri Bf","51.9240979089963","8.8425665004614"
"de:05766:3215:0:2","Dt-Hiddesen, Kreuzweg Ri Stern","51.9239150901459","8.84353668096839"
"de:05766:3217:0:1","Dt-Hiddesen, Nullbrede Ri Bf","51.9301138957177","8.84255751730856"
"de:05766:3218:0:1","Dt-Hiddesen, Obere Straße Ri Bf","51.9302800717507","8.84718384102242"
"de:05766:3219:0:1","Dt-Hiddesen, Sternschanze alle Ri","51.9241920881135","8.83107704797592"
"de:05766:3220:0:1","Dt-Pivitsh VL, Gaus Ri ber","51.939568333415","8.77816627773391"
"de:05766:3221:0:1","Dt-Pivitsh VL, H-Niebuhr-Str Ri Ber","51.9353149137644","8.78581094080283"
"de:05766:3222:0:1","Dt-Pivitsh VL, Kussler Höhe Ri Ber","51.9385437835185","8.78978149435919"
"de:05766:3223:0:1","Dt-Pivitsh VL, Sandstraße Ri ber","51.9357247660256","8.77883103104425"
"de:05766:3224:0:1","Dt-Pivitsh VH, Abzw. Lage Ri Ber","51.9553821998989","8.81166445468339"
"de:05766:3224:0:2","Dt-Pivitsh VH, Abzw. Lage Ri Pi","51.9553711277137","8.81161953891918"
"de:05766:3225:0:1","Dt-Nienhagen, Bahnhof","51.9584878399056","8.8202792982593"
"de:05766:3226:0:1","Dt-Pivitsh VH, Begemann Ri Be","51.9459532440852","8.81026308283997"
"de:05766:3227:0:1","Dt-Pivitsh VH, Deppe Ri Ber","51.9408420655238","8.80689440052405"
"de:05766:3229:0:1","Dt-Pivitsh VL, Eichenkrug Ri Ber","51.9462965526481","8.78219073020733"
"de:05766:3230:0:1","Dt-Pivitsh VH, Feuerwehrturm Ri Be","51.9539870830287","8.81235615745226"
"de:05766:3231:0:1","Dt-Nienhagen, Friedhof","51.9597444281138","8.82620817913531"
"de:05766:3231:0:2","Dt-Nienhagen, Friedhof Ri Pi","51.9597721058717","8.82619021282963"
"de:05766:3232:0:1","Dt-Pivitsh VL, Hebbelstraße Ri Ber","51.9508645213067","8.79878261350732"
"de:05766:3233:0:1","Dt-Pivitsh VL, Hellemann Ri He","51.9493696009644","8.79247644021193"
"de:05766:3235:0:1","Dt-Pivitsh VH, Kohlpott Ri Ba","51.9549669910818","8.81514093483342"
"de:05766:3235:0:2","Dt-Pivitsh VH, Kohlpott Ri La","51.9549559187941","8.81517686744479"
"de:05766:3236:0:1","Dt-Pivitsh VL, Oerlinghs. Str Ri Ber","51.9439985500967","8.78891911168632"
"de:05766:3237:0:1","Dt-Pivitsh VH, Pleitner Ri Da","51.9629826098291","8.80467556177197"
"de:05766:3238:0:1","Dt-Pivitsh VL, Remmerbach Ri Ber","51.9528798165201","8.80290588066201"
"de:05766:3239:0:1","Dt-Pivitsh VL, Schmiede Ri Bf","51.9427470582263","8.77749254127073"
"de:05766:3240:0:1","Dt-Pivitsh VH, Schule Ri Ber","51.9510416937479","8.81166445468339"
"de:05766:3240:0:2","Dt-Pivitsh VH, Schule Ri Pi","51.9510583036284","8.81172733675329"
"de:05766:3242:0:1","Dt-Hiddesen, Maiweg Ri Herm","51.9191061330106","8.83931459913244"
"de:05766:3242:0:2","Dt-Hiddesen, Maiweg Ri Fre","51.9191061330106","8.83952121164782"
"de:05766:3243:0:1","Dt-Brokhausen, Kreuzung","51.9679252293107","8.90976946687574"
"de:05766:3243:0:2","Dt-Brokhausen, Kreuzung","51.9679252293107","8.90977845002858"
"de:05766:3244:0:1","Dt-Nienhagen, Ohmstraße Ri Wes","51.9595451477524","8.83903612139432"
"de:05766:3244:0:2","Dt-Nienhagen, Ohmstraße Ri Ju","51.9595174698543","8.83914391922843"
"de:05766:3246:0:1","Dt-Heidenold, K-Wehrh-Str. Ri Ber","51.9420216199617","8.83230773991533"
"de:05766:3257:0:1","Dt-Pivitsh VL, In den Benten Ri Ber","51.9477251310294","8.79862091675616"
"de:05766:3259:0:1","Dt-Herberhausen, Londoner Str","51.9510472303754","8.90029224062696"
"de:05766:3259:0:2","Dt-Herberhausen, Londoner Str","51.9510583036284","8.90027427432128"
"de:05766:3370:0:1","Dt-Mosebeck, Lehmbrink Ri Bies","51.959838532421","8.94875635021195"
"de:05766:3370:0:2","Dt-Mosebeck, Lehmbrink Ri Mei","51.959838532421","8.94868448498922"
"de:05766:3441:0:1","Dt-Pivitsh VL, Am Palsberg Ri Ber","51.9428411982098","8.79474917788107"
"de:05766:3442:0:1","Dt-Herberhausen, Poggenpohl Ri Bf","51.9509697175281","8.90255599514326"
"de:05766:3442:0:2","Dt-Herberhausen, Poggenpohl Ri Her","51.9509863274352","8.90259192775463"
"de:05766:3443:0:1","Dt-Herberhausen, Allandsbusch Ri Det","51.9526583599373","8.90129835374531"
"de:05766:3443:0:2","Dt-Herberhausen, Allandsbusch Ri Her","51.9526749692189","8.90127140428679"
"de:05766:3453:0:1","Dt-Mosebeck, An der Mosebecke Ri Röd","51.9522099070071","8.9530413141178"
"de:05766:3455:0:1","Dt-Pivitsh VL, Rethlager Mühle Ri Ber","51.9455434852636","8.78107681925486"
"de:05766:3469:0:1","B.S-Hölserheide, Kirche Ri Höh","52.026978594082","8.76962329938075"
"de:05766:3469:0:2","B.S-Hölserheide, Kirche Ri ZOB","52.026967539586","8.76952448469948"
"de:05766:3470:0:1","B.S-Sylbach, Max-Planck-Str. Ri Höh","52.0290070478536","8.76202355207604"
"de:05766:3470:0:2","B.S-Sylbach, Max-Planck-Str. Ri ZOB","52.0290125748499","8.76200558577035"
"de:05766:3471:0:1","B.S-Holzhausen, Alt-Sylb. Weg Ri Höh","52.0305103656695","8.76106235472189"
"de:05766:3471:0:2","B.S-Holzhausen, Alt-Sylb. Weg Ri ZOB","52.0305048388583","8.76102642211052"
"de:05766:3472:0:1","B.S-Holzhausen, Pankokenweg Ri Höh","52.0323452292178","8.75874470128854"
"de:05766:3472:0:2","B.S-Holzhausen, Pankokenweg Ri ZOB","52.0322844367521","8.75875368444139"
"de:05766:3473:0:1","B.S-Holzhausen, Im Moddenfelde Höh","52.0362965621978","8.75862792030159"
"de:05766:3473:0:2","B.S-Holzhausen, Im Moddenfelde Ri ZOB","52.0363241926674","8.75858300453738"
"de:05766:3476:0:1","B.S-Holzhausen, Hauptstraße 25 Ri Höh","52.0339810681681","8.75711875062406"
"de:05766:3476:0:2","B.S-Holzhausen, Hauptstraße 25 Ri ZOB","52.0339534362503","8.75706485170701"
"de:05766:3477:0:1","Dt-Nienhagen, Jugendwerkhof Ri Ohm","51.9599713852242","8.83271198179324"
"de:05766:3477:0:2","Dt-Nienhagen, Jugendwerkhof Ri Fr","51.9600045983635","8.83285571223872"
"de:05766:3478:0:1","B.S-Holzhausen, Breite Wiese Ri Höh","52.0440324266742","8.75387583244794"
"de:05766:3478:0:2","B.S-Holzhausen, Breite Wiese Ri ZOB","52.0440158512531","8.75388481560078"
"de:05766:3479:0:1","B.S-Holzhausen, Porschestr. Ri Höh","52.0469440802627","8.75354345579277"
"de:05766:3479:0:2","B.S-Holzhausen, Porschestr. Ri ZOB","52.046938555483","8.75347159057003"
"de:05766:3480:0:1","B.S-Holzhausen, Heerserh.Str. Ri Höh","52.0495461755977","8.75504364231746"
"de:05766:3480:0:2","B.S-Holzhausen, Heerserh.Str. Ri ZOB","52.0495737978776","8.7549268613305"
"de:05766:3482:0:1","B.S-Schötmar, Daimlerstraße 5 Ri Höh","52.0568047233919","8.75170190946007"
"de:05766:3482:0:2","B.S-Schötmar, Daimlerstraße 5 Ri ZOB","52.0568102469518","8.7516659768487"
"de:05766:3483:0:1","B.S-Schötmar, Daimlerstr. 13 Ri Höh","52.054076001288","8.75304039923359"
"de:05766:3483:0:2","B.S-Schötmar, Daimlerstr. 13 Ri ZOB","52.0540815251853","8.75304938238643"
"de:05766:3484:0:1","B.S-Schötmar, Kattenbrink 20 Ri Höh","52.0588760104705","8.75823266157652"
"de:05766:3484:0:2","B.S-Schötmar, Kattenbrink 20 Ri ZOB","52.058859440555","8.75821469527084"
"de:05766:3508:1:1","Kt-Talle, Albernberg","52.0953149449579","8.9137400204321"
"de:05766:3509:1:1","Kt-Talle, Alter Krug","52.0961703503605","8.90701163895311"
"de:05766:3510:0:1","Kt-Talle, Niederntalle Ri Sied","52.0950224477346","8.89070721654407"
"de:05766:3511:0:1","Kt-Talle, Siedlung Ri Alt","52.0965621757449","8.89938494218987"
"de:05766:3511:0:2","Kt-Talle, Siedlung Ri Nied","52.0965456198124","8.89937595903703"
"de:05766:3587:0:1","Le-Brüntorf, Brüntorfer Weg","52.0777175491392","8.87210310700737"
"de:05766:3587:0:2","Le-Brüntorf, Brüntorfer Weg","52.0777065071895","8.87210310700737"
"de:05766:3588:0:1","Le-Matorf, Im Fahren","52.0759618448364","8.88093354625149"
"de:05766:3588:0:2","Le-Matorf, Im Fahren","52.0759728872176","8.88093354625149"
"de:05766:3589:2:1","Le-Brake, SZ Lüttfeld alle Ri","52.0199694952528","8.90995811308543"
"de:05766:3590:0:1","Le-Voßheide, Abzw.Wiembeck Ri Blo","52.0028014091254","8.96915709031715"
"de:05766:3590:0:2","Le-Voßheide, Abzw.Wiembeck Ri Le","52.0026908042884","8.96958828165359"
"de:05766:3591:0:1","Le-Voßheide, Eichenpohl Ri Blo","51.998747563298","8.97549919622391"
"de:05766:3592:0:1","Le-Voßheide, Eickernkrug Ri Blo","52.0101560173814","8.95707474974406"
"de:05766:3592:0:2","Le-Voßheide, Eickernkrug Ri Le","52.0101394293995","8.95713763181396"
"de:05766:3594:0:1","Le-Voßheide, Kluckhof Ri Eick","52.0035977558833","8.95657169318488"
"de:05766:3594:0:2","Le-Voßheide, Kluckhof Ri Wiem","52.0036696476016","8.9565537268792"
"de:05766:3595:0:1","Le-Lütte, Brücke Ri Plö","52.0131251670837","8.97070219260605"
"de:05766:3596:0:1","Le-Lütte, Plögerweg Ri Stum","52.0145405582997","8.97707124797134"
"de:05766:3597:0:1","Le-Oberwiembeck Ri Humm","51.9870706573193","8.9409140577805"
"de:05766:3598:0:1","Le-Voßheide, Schule Ri Blo","52.0069323040457","8.96122496635727"
"de:05766:3599:0:1","Le-Wiembeck Ri Klu","51.9904562225217","8.95281673529674"
"de:05766:3600:0:1","Le-Kirchheide, Hetland Ri Brü","52.082178273351","8.86460217438392"
"de:05766:3600:0:2","Le-Kirchheide, Hetland Ri Kir","52.0822058754546","8.86456624177255"
"de:05766:3601:0:1","Le-Kirchheide, Kirchheid.Krug Ri Het","52.0853800035109","8.86862662685734"
"de:05766:3601:0:2","Le-Kirchheide, Kirchheid.Krug Ri Spo","52.0852585627648","8.86886917198408"
"de:05766:3602:0:1","Le-Kirchheide, Prüßner","52.087422366544","8.87337871471099"
"de:05766:3602:0:2","Le-Kirchheide, Prüßner","52.0874278863175","8.87342363047521"
"de:05766:3603:0:1","Le-Welstorf","52.0907396272752","8.86064060398041"
"de:05766:3603:0:2","Le-Welstorf","52.0907506660008","8.86059568821619"
"de:05766:3604:0:1","Lemgo, Braker Weg Ri Bf/Lie","52.0218766537841","8.9069667231889"
"de:05766:3605:0:1","Le-Brake, Danziger Straße Ri Mar","52.0143415216155","8.91956110347401"
"de:05766:3606:0:1","Lemgo, Dieselstraße","52.0158287465398","8.9022056521824"
"de:05766:3606:0:2","Lemgo, Dieselstraße","52.0158619182793","8.90221463533524"
"de:05766:3607:0:1","Lemgo, Hirtenstraße Ri Leo","52.028841237647","8.90439754147596"
"de:05766:3608:0:1","Lemgo, Leopoldstraße Ri Past","52.029222600203","8.90019342594569"
"de:05766:3609:0:1","Lemgo, Pastorenstraße Ri Fin","52.0293773550952","8.89650135012745"
"de:05766:3610:0:1","Le-Brake, Ewerbeckstraße Ri Danz","52.0167409604141","8.91724345004066"
"de:05766:3610:0:2","Le-Brake, Ewerbeckstraße Ri Mit","52.0167464889263","8.91727938265202"
"de:05766:3611:0:1","Le-Brake, Innov. Campus Süd Ri Daim","52.015176363998","8.9062480709615"
"de:05766:3612:0:1","Lemgo, Finanzamt Ri Le Bf","52.0271554656474","8.89374352220482"
"de:05766:3612:0:2","Lemgo, Finanzamt Ri BS/Li","52.0272770644428","8.89366267382924"
"de:05766:3613:0:1","Lemgo, Leeser Weg Ri Le","52.0288522916799","8.8853802069085"
"de:05766:3613:0:2","Lemgo, Leeser Weg Ri BS/Li","52.0287693863666","8.88449985792994"
"de:05766:3614:0:1","Le-Brake, Grabbestraße","52.0128542472534","8.91900414799778"
"de:05766:3615:0:1","Lemgo, Liebigstraße Ri Pah","52.0197373138795","8.89450709019643"
"de:05766:3616:0:1","Lemgo, Leuchte","52.0299742618052","8.89066230077986"
"de:05766:3616:0:2","Lemgo, Leuchte","52.0299687349278","8.8906712839327"
"de:05766:3618:0:1","Le-Brake, Mitte Ri Sch","52.0180733121035","8.91496172921867"
"de:05766:3619:0:1","Lemgo, Pahnsiek Ri Non","52.0148446404131","8.88986280017688"
"de:05766:3623:0:1","Lemgo, Richard-Wagner-Straße Ri Gos","52.033157629691","8.8984596774471"
"de:05766:3623:0:2","Lemgo, Richard-Wagner-Straße","52.033157629691","8.8984596774471"
"de:05766:3624:0:1","Le-Brake, Schloß Ri Mit","52.0229435214945","8.9135064584582"
"de:05766:3624:0:2","Le-Brake, Schloß Ri Eau","52.0229269382533","8.91345255954114"
"de:05766:3625:0:1","Le-Brake, Schule Ri Jun","52.0143028199352","8.91444968950666"
"de:05766:3627:0:1","Lemgo, Südschule Ri Sch","52.0156628874733","8.89487539946296"
"de:05766:3628:0:1","Lemgo, Bürgerplatz","52.030637482138","8.92141163295955"
"de:05766:3628:0:2","Lemgo, Bürgerplatz","52.030637482138","8.92140264980671"
"de:05766:3629:0:1","Lemgo, Dewitzstraße Ri Kro","52.0370757348913","8.89209960523465"
"de:05766:3629:0:2","Lemgo, Dewitzstraße Ri Sche","52.0370978388831","8.89208163892896"
"de:05766:3630:0:1","Lemgo, Entruper Weg Ri Sche","52.035815789293","8.89306978574163"
"de:05766:3630:0:2","Lemgo, Entruper Weg","52.0358047369816","8.893105718353"
"de:05766:3632:0:1","Lemgo, Gelsenkirchener Straße","52.0291231146324","8.92439403970324"
"de:05766:3633:0:1","Lemgo, Goethestraße Ri Klu","52.031974946554","8.91648886520189"
"de:05766:3634:0:1","Lemgo, Handwerksstraße","52.0273544453223","8.9247443826641"
"de:05766:3635:0:1","Lemgo, Hinter den Pösten","52.0298029282871","8.91116185556632"
"de:05766:3636:0:1","Lemgo, Hyazinthenstraße Ri Tul","52.0307148572027","8.88437409379015"
"de:05766:3637:0:1","Lemgo, Johannisstraße Ri Le","52.0286754268256","8.8761095931751"
"de:05766:3637:0:2","Lemgo, Johannisstraße Ri BS/Li","52.0287141160723","8.87609162686941"
"de:05766:3639:0:1","Lemgo, Kluskampstraße Ri A.-H","52.029753186175","8.91739616363898"
"de:05766:3639:0:2","Lemgo, Kluskampstraße Ri Goe","52.0297310785518","8.91737819733329"
"de:05766:3640:0:1","Lemgo, Kroßmannstraße Ri Gos","52.0319252068581","8.88918008056086"
"de:05766:3640:0:2","Lemgo, Kroßmannstraße Ri Dew","52.0319252068581","8.88941364253476"
"de:05766:3641:0:1","Lemgo, Lessingweg Ri Wil","52.0371088908749","8.91634513475641"
"de:05766:3641:0:2","Lemgo, Lessingweg Ri AmK","52.0371088908749","8.9163631010621"
"de:05766:3642:0:1","Le-Lieme, Liemergrund Ri Le","52.0305214192898","8.84694129589568"
"de:05766:3642:0:2","Le-Lieme, Liemergrund Ri BS/Li","52.030493785234","8.84695027904852"
"de:05766:3643:0:1","Le-Lüerdissen, Luherheide Ri Al","52.0520155399542","8.90792792054304"
"de:05766:3643:0:2","Le-Lüerdissen, Luherheide Ri Le","52.0520321124083","8.90798181946009"
"de:05766:3646:0:1","Lemgo, Neuer Krug Ri Le","52.0295321094517","8.85353493008203"
"de:05766:3646:0:2","Lemgo, Neuer Krug Ri BS","52.0295155286534","8.85351696377635"
"de:05766:3647:0:1","Lemgo, Ochsenteich Ri Le","52.0288965077842","8.87098021290206"
"de:05766:3647:0:2","Lemgo, Ochsenteich Ri BS/Li","52.0289241428272","8.87094428029069"
"de:05766:3649:0:1","Lemgo, Siechenstraße Ri Kons","52.0355781639941","8.90253802883757"
"de:05766:3649:0:2","Lemgo, Siechenstraße","52.0350697521358","8.90249311307336"
"de:05766:3650:0:1","Lemgo, Slavertrift","52.0332681592268","8.89349199392523"
"de:05766:3650:0:2","Lemgo, Slavertrift","52.0332681592268","8.8934650444667"
"de:05766:3651:0:1","Lemgo, Torkamp","52.0407282712147","8.90248412992052"
"de:05766:3651:0:2","Lemgo, Torkamp","52.0407227456665","8.90245718046199"
"de:05766:3653:0:1","Lemgo, Wilmersiek Ri Goe","52.0355063235388","8.91694700599685"
"de:05766:3653:0:2","Lemgo, Wilmersiek Ri Les","52.0355063235388","8.91696497230254"
"de:05766:3655:0:1","Lemgo, Biesterbergweg","52.0067387632657","8.89315961727006"
"de:05766:3656:0:1","Le-Brake, Landwehr","52.0024142910003","8.91647089889621"
"de:05766:3656:0:2","Le-Brake, Landwehr","52.0024142910003","8.91648886520189"
"de:05766:3657:0:1","Lemgo, Laubker Schule","52.0142696470397","8.88148151857488"
"de:05766:3659:0:1","Lemgo, Nonenstelle Ri Ros","52.0101836640043","8.88655699993086"
"de:05766:3660:0:1","Le-Brake, Wilhelmsburg Ri Bre","52.0156850020511","8.92630745125868"
"de:05766:3661:0:1","Lemgo, Matorf/Bredaerbruch Ri Tip","52.0679719661605","8.8816971142431"
"de:05766:3661:0:2","Lemgo, Matorf/Bredaerbruch Ri Spo","52.0679885326956","8.88174203000731"
"de:05766:3662:0:1","Le-Lüerdissen, Bruch Ri Al","52.0568599589604","8.91813278217206"
"de:05766:3662:0:2","Le-Lüerdissen, Bruch Ri Le","52.0567991998313","8.91812379901921"
"de:05766:3663:0:1","Le-Brüntorf Ri Mat","52.0736925775449","8.86410810097759"
"de:05766:3663:0:2","Le-Brüntorf Ri Het","52.0736925775449","8.86412606728327"
"de:05766:3664:0:1","Le-Leese, Dorf Ri Tur","52.0444302349369","8.85658021889562"
"de:05766:3664:0:2","Le-Leese, Dorf Ri Tip","52.0444081345708","8.85660716835415"
"de:05766:3665:0:1","Le-Lieme, Dorf Ri Sep","52.0248450257132","8.83019669899736"
"de:05766:3666:0:1","Le-Lüerdissen, Dorf Ri Al","52.0614442730692","8.93000851022977"
"de:05766:3666:0:2","Le-Lüerdissen, Dorf Ri Le","52.0614166581277","8.93000851022977"
"de:05766:3667:0:1","Le-Lüerdissen, Mitte Ri Al","52.0593951980441","8.92251656075917"
"de:05766:3667:0:2","Le-Lüerdissen, Mitte Ri Le","52.0594117677608","8.92266927435749"
"de:05766:3669:0:1","Le-Hengstheide","52.033649484028","8.80894255937213"
"de:05766:3669:0:2","Le-Hengstheide","52.033649484028","8.80894255937213"
"de:05766:3670:0:1","Le-Rhiene, Herforder Straße","52.0405238254782","8.8216986364084"
"de:05766:3670:0:2","Le-Rhiene, Herforder Straße","52.0404961976042","8.8216986364084"
"de:05766:3672:0:1","Lemgo, Kölling","52.0316820342148","8.93502110951585"
"de:05766:3672:0:2","Lemgo, Kölling","52.0317096675363","8.93502110951585"
"de:05766:3673:0:1","Le-Lieme, Liemer Krug Ri Dor","52.0246294522631","8.8254446111437"
"de:05766:3674:0:1","Lemgo, Lüningheide","52.0372304626043","8.94577394346826"
"de:05766:3676:0:1","Le-Lieme, Neustadt Ri Lie","52.0267243399813","8.8424587026273"
"de:05766:3676:0:2","Le-Lieme, Neustadt Ri Sep","52.0267243399813","8.8424587026273"
"de:05766:3678:0:1","Le-Rhiene Ri Lie","52.0438611470262","8.82238135602443"
"de:05766:3679:0:1","Le-Entrup, Scherenbreite Ri Dew","52.0463087261159","8.88602699391316"
"de:05766:3679:0:2","Le-Entrup, Scherenbreite Ri AmK","52.0463529249576","8.88599106130179"
"de:05766:3680:0:1","Le-Entrup, Schlingfeld Ri AmK","52.0502256787279","8.8806820179719"
"de:05766:3681:0:1","Le-Voßheide, Hasebecker Weg Ri blo","52.0053673646191","8.96623756564335"
"de:05766:3682:0:1","Le-Leese, Stühe","52.0466733652524","8.87221090484148"
"de:05766:3683:0:1","Le-Leese, Tipp Ri Tur","52.0503361660651","8.85338221648371"
"de:05766:3683:0:2","Le-Leese, Tipp Ri Brü","52.050319592982","8.8533373007195"
"de:05766:3684:0:1","Le-Leese, Turnhalle Ri Schl","52.0439440243572","8.85924821528983"
"de:05766:3684:0:2","Le-Leese, Turnhalle Ri Tip","52.0439550746564","8.85924821528983"
"de:05766:3685:0:1","Le-Wittighöferheide, Mitte","52.0418444179365","8.83784136206628"
"de:05766:3687:0:1","Le-Voßheide, Breite Ri Blo","52.0113061024684","8.94969059810757"
"de:05766:3687:0:2","Le-Voßheide, Breite Ri Le","52.0113226900178","8.94969059810757"
"de:05766:3688:0:1","Le-Brake, Buschkamp Ri Maß","52.0069654823811","8.93125716847487"
"de:05766:3689:0:1","Le-Wahmbeckerh, Hummerntrup Ri Haup","51.9882600598798","8.92959528519902"
"de:05766:3689:0:2","Le-Wahmbeckerh, Hummerntrup Ri Wiem","51.9882711239414","8.92958630204618"
"de:05766:3690:0:1","Le-Wahmbeck, Kixkuhle","51.9939908777625","8.89773204206686"
"de:05766:3691:2:1","Le-Hörstmar, Magdeburger Str Ri Le","52.0098408446734","8.84674366653314"
"de:05766:3692:0:1","Le-Brake, Maßbruch Ri Haup","52.0023866395775","8.93927014081033"
"de:05766:3692:0:2","Le-Brake, Maßbruch Ri Busc","52.0023921698634","8.93926115765749"
"de:05766:3693:0:1","Lemgo, Rieperturm Ri Bel","52.0296260671927","8.95684118777016"
"de:05766:3694:0:1","Le-Wahmbeck, Rosengarten Ri Heid","52.0010538207457","8.88175101316015"
"de:05766:3695:0:1","Le-Wahmbeckerh, Schmiede","51.9871591720861","8.91044320333892"
"de:05766:3695:0:2","Le-Wahmbeckerh, Schmiede","51.9871702364197","8.91044320333892"
"de:05766:3696:0:1","Le-Wahmbeckerh, Hauptstr Ri Wiem","51.9895600684061","8.91319204810871"
"de:05766:3697:0:1","Le-Brake, Stucken Ri Busch","52.0076788106425","8.92584032731088"
"de:05766:3697:0:2","Le-Brake, Stucken Ri Wilh","52.0076622217423","8.92589422622793"
"de:05766:3699:0:1","Le-Wahmbeck","51.9947210065141","8.90225955109946"
"de:05766:3700:0:1","B.S-Kusenbaum, Berghöfer","52.0441208288164","8.67202134374757"
"de:05766:3700:0:2","B.S-Kusenbaum, Berghöfer","52.0443197329969","8.67037742677741"
"de:05766:3716:0:1","B.S-Kusenbaum, Mühlenweg Ri Ber","52.045043515738","8.6624812354289"
"de:05766:3716:0:2","B.S-Kusenbaum, Mühlenweg Ri Schw","52.0450269406919","8.66247225227605"
"de:05766:3846:0:1","Le-Wahmbeck, Brede","51.9930284171256","8.90849385917211"
"de:05766:3846:0:2","Le-Wahmbeck, Brede","51.9930284171256","8.9085118254778"
"de:05766:3847:0:1","Lemgo, Gosebrede Ri Moz","52.0320965322444","8.89095874482366"
"de:05766:3847:0:2","Lemgo, Gosebrede Ri Kro","52.032079952397","8.89093179536513"
"de:05766:3954:0:1","Dt-Brokhausen, Barkhauser Str Ri Bark","51.9683735250566","8.92367538747585"
"de:05766:5186:0:1","Bad Salzuflen, Kurpark","52.0870911788885","8.74610540523922"
"de:05766:5235:0:1","B.S-Wüsten, Waldemeinestraße Ri Krut","52.1093525564681","8.7752018372959"
"de:05766:5235:0:2","B.S-Wüsten, Waldemeinestraße Ri Gust","52.1093415223454","8.77521082044875"
"de:05766:5243:0:1","Bad Salzuflen, Mozartstraße Ri Kru","52.0925002694723","8.72105139196164"
"de:05766:5827:0:1","Bad Salzuflen, Unter d. Buchen alle Ri","52.0843808675474","8.76833870852428"
"de:05766:8591:0:1","Detmold, Bremke","51.9663755304604","8.86513218040163"
"de:05766:8592:0:1","Detmold, Oettern","51.9673440985214","8.88321526707347"
"de:05766:8841:0:1","Le-Lieme, Großer Stein","52.0341800174717","8.83313418997684"
"de:05766:9016:72:72","Le-Hörstmar, Bahnhof","52.0123787513403","8.84526144631414"
